Data Year,ID,Property Name,Reporting Status,Address,ZIP Code,Chicago Energy Rating,Exempt From Chicago Energy Rating,Community Area,Primary Property Type,Gross Floor Area - Buildings (sq ft),Year Built,# of Buildings,Water Use (kGal),ENERGY STAR Score,Electricity Use (kBtu),Natural Gas Use (kBtu),District Steam Use (kBtu),District Chilled Water Use (kBtu),All Other Fuel Use (kBtu),Site EUI (kBtu/sq ft),Source EUI (kBtu/sq ft),Weather Normalized Site EUI (kBtu/sq ft),Weather Normalized Source EUI (kBtu/sq ft),Total GHG Emissions (Metric Tons CO2e),GHG Intensity (kg CO2e/sq ft),Latitude,Longitude,Location
2018,229402,1101 S. State Street,Submitted,1101 S. State Street,60605,4.0,false,LOOP,Multifamily Housing,542774,2005,1,344,100,1751191.9,25237999.3,,,,49.7,57.9,48.8,56.9,1631.8,3,41.86838196,-87.62701601,"(41.86838196, -87.62701601)"
2018,160343,100 W. Chestnut St.,Submitted,100 W. Chestnut St.,60642,3.5,false,NEAR NORTH SIDE,Multifamily Housing,292445,1983,1,10642,72,7487309.9,13089297.5,,,,70.4,118.7,69.4,116,1940.9,6.6,41.898007,-87.6314,"(41.898007, -87.6314)"
2018,172557,T.E. Brown Apartments,Submitted,3601 S. Wells,60609,1.0,false,ARMOUR SQUARE,Multifamily Housing,87527,1975,1,3538,2,6998844.5,846963,,,,89.6,234.1,90.8,237.4,1209.3,13.8,41.81195152,-87.65512794,"(41.81195152, -87.65512794)"
2018,149143,The Residences at 950 West Monroe,Submitted,950 W Monroe St,60607,2.5,false,NEAR WEST SIDE,Multifamily Housing,123391,2005,1,3249,54,4012785,6083975,,,,81.8,142.8,81.3,141.4,990.7,8,41.87399385,-87.651678,"(41.87399385, -87.651678)"
2018,160214,Children's Memorial Hospital sub-building,Exempt,700 W Fullerton Ave,60614,,true,LINCOLN PARK,,257400,,1,,,,,,,,,,,,,,41.92548708,-87.64643712,"(41.92548708, -87.64643712)"
2018,238910,(IL505) - Lake Point Tower Condominium Association,Submitted,505 N. Lake Shore Drive,60611,3.5,false,NEAR NORTH SIDE,Multifamily Housing,1705000,1968,1,34340,60,61462437.3,26466900,,,,51.6,117.2,50.6,115.1,11630.9,6.8,41.89150137,-87.61230249,"(41.89150137, -87.61230249)"
2018,156609,Wicker Park Commons (Lowes),Submitted,1360 N. Ashland Avenue,60622,1.5,false,WEST TOWN,Retail Store,67000,1990,1,443,36,3461091.9,1535922.1,,,,74.6,168.7,73.8,166.3,657.4,9.8,41.90656367,-87.66882411,"(41.90656367, -87.66882411)"
2018,160243,Arkadia Tower,Submitted,765 West Adams Street,60661,4.0,false,NEAR WEST SIDE,Multifamily Housing,352027,2015,1,10681,94,7786856.2,11741600.6,,,,55.5,97,55.1,95.7,1919.1,5.5,41.87911301,-87.64651787,"(41.87911301, -87.64651787)"
2018,260149,Riverside Square & River's Edge,Submitted,3145 South Ashland,60608,3.5,false,MCKINLEY PARK,Supermarket/Grocery Store,74495,1987,1,12479,60,9791651.8,2630900,,,,166.8,405.1,166.8,405.1,1768.7,23.7,41.8365795,-87.66384491,"(41.8365795, -87.66384491)"
2018,150282,The Royalle Condominium Association,Submitted,744 N. Clark St.,60654,1.0,false,NEAR NORTH SIDE,Multifamily Housing,77800,2003,1,2073,28,2640069.1,3607416.3,,,,80.3,143.7,80.3,142.4,630.8,8.1,41.89198218,-87.63699623,"(41.89198218, -87.63699623)"
2018,165328,2750 W Roosevelt Rd,Submitted,2750 W Roosevelt Rd,60608,3.5,false,NORTH LAWNDALE,Residence Hall/Dormitory,121626,2006,1,6066,70,6120524.1,72406.3,,,,50.9,141.5,50.8,141.1,1022.1,8.4,41.86684596,-87.69530763,"(41.86684596, -87.69530763)"
2018,175526,,Exempt,8101 8125 S INGLESIDE AVE,60619,,true,CHATHAM,,95925,,1,2603,,,,,,,,,,,,,41.74401302,-87.60549928,"(41.74401302, -87.60549928)"
2018,124308,Walmart Supercenter #01-5965,Submitted,10900 S. Doty Avenue,60628,1.0,false,PULLMAN,Wholesale Club/Supercenter,155765,2013,1,4739,12,14404628.1,7780811.9,,,,142.4,311.4,140.8,309.3,2809.7,18,41.693399,-87.598728,"(41.693399, -87.598728)"
2018,175905,"HI Chicago, The J. Ira and Nicki Harris Family Hostel",Submitted,24 East Congress Parkway,60605,1.0,false,LOOP,Hotel,100535,1880,1,4503,6,9436261.3,4178010.2,,,,135.4,306.4,134.7,305.6,1791.8,17.8,41.87588999,-87.62653046,"(41.87588999, -87.62653046)"
2018,173476,St. Demetrios Greek Orthodox Church,Submitted,2727 W Winona ST,60625,2.0,false,LINCOLN SQUARE,Worship Facility,63141,1924,1,190,46,789309.2,3154764.4,,,,62.5,87.5,60.7,85.6,298.9,4.7,41.97419798,-87.696868,"(41.97419798, -87.696868)"
2018,102397,,Exempt,1734 N PAULINA ST,60622,,true,WEST TOWN,,95110,,1,5940,,,,,,,,,,,,,41.90225377,-87.68447845,"(41.90225377, -87.68447845)"
2018,100179,Saint Anthony Hospital - Main Hospital,Submitted,2875 West 19th Street,60623,2.5,false,SOUTH LAWNDALE,Hospital (General Medical & Surgical),239057,1897,1,16992,56,24686396.6,40586862.8,,,,273,467.4,269.6,462.4,6262.7,26.2,41.85513555,-87.6978405,"(41.85513555, -87.6978405)"
2018,251869,Albany Square,Not Submitted,4445 N PULASKI RD,60630,0.0,false,ALBANY PARK,,137971,,1,3762,,,,,,,,,,,,,41.96196559,-87.72736836,"(41.96196559, -87.72736836)"
2018,159245,Maple Pointe Apartments,Exempt,150 W Maple St,60610,,true,NEAR NORTH SIDE,,207540,,1,15792,,,,,,,,,,,,,41.90205446,-87.63398256,"(41.90205446, -87.63398256)"
2018,250040,Chicago High-CPS,Submitted,3807 W 111th St,60655,1.0,false,MOUNT GREENWOOD,K-12 School,192250,1997,1,9410,19,11446574.2,11673941,,,,120.3,230.5,117.8,227.6,2524.4,13.1,41.6903803,-87.71714665,"(41.6903803, -87.71714665)"
2018,254077,South Commons - 3021 S Michigan,Submitted,3021 S Michigan Ave,60616,3.5,false,Douglas,Multifamily Housing,67133,1964,1,,79,1070477.5,5657100.2,,,,100.2,133.1,101.7,134.7,478.6,7.1,41.8458598,-87.62921,"(41.8458598, -87.62921)"
2018,251294,954 W Washington Blvd,Submitted,954 W Washington Blvd,60607,4.0,false,NEAR WEST SIDE,Office,140000,1889,1,451,94,2222096.4,3161599.8,,,,38.5,68.2,37,65.9,537.6,3.8,41.88352088,-87.65172304,"(41.88352088, -87.65172304)"
2018,134136,Jenkins Hall 171 W. Oak,Submitted,171 W. Oak,60610,4.0,false,NEAR NORTH SIDE,College/University,164122,1977,1,6403,,2146615.4,9481299.6,,,,70.8,97.3,71.2,97.7,860.7,5.2,41.9037528,-87.63558845,"(41.9037528, -87.63558845)"
2018,160262,Dearborn Homes,Submitted,2960 S. FEDERAL STREET,60616,1.0,false,DOUGLAS,Multifamily Housing,706989,1950,16,63,24,23269816.1,60334516,,,,118.3,181.8,118.7,180.7,7075.9,10,41.84018052,-87.62932246,"(41.84018052, -87.62932246)"
2018,251545,Metcalfe Mat-CPS,Submitted,12339 S Normal Ave,60628,2.0,false,WEST PULLMAN,K-12 School,81370,1980,1,1596,46,2202246.7,3987406.4,,,,76.1,127.2,73.8,124.8,578.2,7.1,41.66947303,-87.63400634,"(41.66947303, -87.63400634)"
2018,242048,3550 N Lake Shore Drive,Submitted,3550 N Lake Shore Dr.,60657,4.0,false,LAKE VIEW,Multifamily Housing,683035,1962,1,23526,74,12737709.1,43435002.4,,,,82.2,119,82.4,119.2,4426.1,6.5,41.94795804,-87.64383164,"(41.94795804, -87.64383164)"
2018,104250,544 W. Melrose St.,Submitted,544 W. Melrose St.,60657,2.5,false,LAKE VIEW,Multifamily Housing,50589,1967,1,2259,52,915664.8,3452694.8,,,,86.3,122.3,87.3,123.2,335.7,6.6,41.9398511,-87.65844752,"(41.9398511, -87.65844752)"
2018,251231,The Scott Residences,Submitted,211 W Scott,60610,2.0,false,NEAR NORTH SIDE,Multifamily Housing,72639,2014,1,2371,17,3887704.5,2629330,,,,89.7,187.9,88.7,184.2,786.4,10.8,41.90492512,-87.63490115,"(41.90492512, -87.63490115)"
2018,104263,444-454 W. Melrose St.,Submitted,450 W. Melrose St.,60657,2.5,false,LAKE VIEW,Multifamily Housing,57863,1967,1,3641,52,893176.3,4384713.7,,,,91.2,122.8,92.4,123.9,381.5,6.6,41.9398511,-87.65844752,"(41.9398511, -87.65844752)"
2018,228455,Hemingway House Condominium Association,Submitted,1850 N. Clark Street,60614,1.0,false,LINCOLN PARK,Multifamily Housing,192100,1969,1,,14,6524402.5,21678503.8,,,,146.8,213.6,148.5,215.2,2236.9,11.6,41.91645312,-87.63490931,"(41.91645312, -87.63490931)"
2018,159567,The Kent Apartments,Submitted,2625 N Clark St,60614,3.5,false,LINCOLN PARK,Multifamily Housing,150000,1986,1,2217,60,5702943,1181550.6,,,,45.9,114.7,44.2,109.9,1011.5,6.7,41.93060346,-87.64287601,"(41.93060346, -87.64287601)"
2018,160204,4025 West Peterson Ave,Not Submitted,4025 W Peterson Ave,60646,0.0,false,NORTH PARK,,212800,,1,446,,,,,,,,,,,,,41.99010152,-87.72974021,"(41.99010152, -87.72974021)"
2018,251568,Vaughn Occup-CPS,Submitted,4355 N LINDER AVE,60641,1.0,false,PORTAGE PARK,K-12 School,50289,1950,1,625,26,2208132.4,2449622.1,,,,92.6,174.1,90.5,171.2,497.5,9.9,41.96026421,-87.76436775,"(41.96026421, -87.76436775)"
2018,251478,JacksonA-CPS,Submitted,1340 W Harrison St,60607,1.0,false,NEAR WEST SIDE,K-12 School,74135,1989,1,2580,18,3085526.5,3794631.1,,,,92.8,170.3,90.8,164.6,714.9,9.6,41.8747803,-87.66106163,"(41.8747803, -87.66106163)"
2018,251620,Seward Commu-CPS,Submitted,4600 S HERMITAGE AVE,60609,3.0,false,NEW CITY,K-12 School,98375,1896,1,,67,1471237.3,5242841.1,,,,68.2,97.8,66.3,95.8,523.2,5.3,41.80990474,-87.66901222,"(41.80990474, -87.66901222)"
2018,254386,Halas Recreation Center- ID# 254386,Submitted,6458 N Winthrop Ave,60626,4.0,false,Rogers Park,College/University,122180,1982,1,,,5630919.1,966330.3,,,,54,137.3,53.7,136.4,988.1,8.1,42.00660309,-87.66729325,"(42.00660309, -87.66729325)"
2018,173658,212 West Superior Street,Submitted,212 West Superior Street,60654,4.0,false,NEAR NORTH SIDE,Office,92454,1920,1,326,72,3073577.4,3366590.3,,,,69.7,131.3,67.1,126.9,690.1,7.5,41.89561827,-87.63484054,"(41.89561827, -87.63484054)"
2018,159315,1401 South State,Submitted,1401 South State Street,60605,1.0,false,NEAR SOUTH SIDE,Multifamily Housing,287705,2008,1,13168,6,11226271.6,24515143,,,,124.2,198.7,124.5,197.2,3169.8,11,41.86368261,-87.6269152,"(41.86368261, -87.6269152)"
2018,160278,"Fourth Prairie Shores, LLC",Submitted,2851 S King Drive,60616,1.0,false,DOUGLAS,Multifamily Housing,289267,1960,1,21246,29,5256216.7,30590150.4,,,,123.9,161.9,125.4,162.6,2499.2,8.6,41.8426876,-87.61626372,"(41.8426876, -87.61626372)"
2018,160419,Caroline Hedger Apartment,Submitted,6400 N. Sherdian Rd,60626,4.0,false,ROGERS PARK,Multifamily Housing,255892,1970,1,9913,93,5959160.4,11003305.1,,,,66.3,110.4,66.3,110.4,1575.8,6.2,41.99842087,-87.66122515,"(41.99842087, -87.66122515)"
2018,240752,200 N. Dearborn CA,Submitted,200 N. Dearborn Street,60601,3.0,false,LOOP,Multifamily Housing,359953,1989,1,12220,42,9467706.3,22861539.6,,,,89.8,140.3,91,141.6,2789.4,7.7,41.88603988,-87.62982289,"(41.88603988, -87.62982289)"
2018,146897,Vision Rentals,Submitted,1624 W. Division St,60622,1.0,false,WEST TOWN,Multifamily Housing,62218,2009,1,2179,,2079719.8,4578011.9,,,,107,170.9,108.4,172.3,589.2,9.5,41.90225377,-87.68447845,"(41.90225377, -87.68447845)"
2018,103628,"SVF Fulton Chicago, LLC",Submitted,1000 West Fulton,60607,4.0,false,NEAR WEST SIDE,Office,562792,1923,1,356,72,19027591.2,29397799.1,,,,86,149.5,86,149.5,4727,8.4,41.88677646,-87.65227883,"(41.88677646, -87.65227883)"
2018,157975,Lake Meadows 9,Submitted,501 E. 32nd Street,60616,1.0,false,DOUGLAS,Multifamily Housing,303979,1956,1,26141,24,2588558.2,42434023.6,,,,148.1,170.4,150.7,173.1,2684.5,8.8,41.83569627,-87.61275453,"(41.83569627, -87.61275453)"
2018,174228,Roscoe Square,Submitted,3330 N Western Ave,60618,3.5,false,NORTH CENTER,Supermarket/Grocery Store,51298,1981,1,101,53,8038245.5,,,,,156.7,438.8,156.7,438.8,1337.3,26.1,41.94133511,-87.68998877,"(41.94133511, -87.68998877)"
2018,251536,Wentworth ES-CPS,Submitted,1340 W 71st St,60636,3.0,false,WEST ENGLEWOOD,K-12 School,102616,1905,1,2683,41,2144210.7,6556763.2,,,,84.8,125.6,83.7,124.5,705,6.9,41.76532371,-87.65837324,"(41.76532371, -87.65837324)"
2018,252068,Hampton Inn Majestic,Submitted,22 W Monroe St,60603,3.5,false,LOOP,Hotel,70265,1906,1,4334,58,3761825.5,2466301.2,,,,88.6,186.8,87.8,184.2,756.8,10.8,41.880768,-87.628592,"(41.880768, -87.628592)"
2018,160329,Lafayette Plaza Housing Cooperative,Submitted,50 W 71st St,60621,3.0,false,GREATER GRAND CROSSING,Multifamily Housing,224058,1965,1,16384,65,3880563.1,18986170,,,,102.1,137.5,103.5,139,1654,7.4,41.76573166,-87.62237195,"(41.76573166, -87.62237195)"
2018,242537,James Kilmer Condo Association,Submitted,1560 North Sandburg Terrace,60610,3.0,false,NEAR NORTH SIDE,Multifamily Housing,750266,1971,2,24002,62,16387692.7,47345232.5,,,,84.9,127.4,85.3,126.6,5241.1,7,41.9104154,-87.63270387,"(41.9104154, -87.63270387)"
2018,175220,Joshua's Prayer House Coptic Temple,Not Submitted,6855 S EMERALD ST,60621,0.0,false,ENGLEWOOD,,52214,,1,325,,,,,,,,,,,,,41.76908947,-87.64274666,"(41.76908947, -87.64274666)"
2018,251527,Key Elementary -CPS,Exempt,509 N Parkside,60644,,true,AUSTIN,,75500,,1,,,,,,,,,,,,,,41.889514,-87.766401,"(41.889514, -87.766401)"
2018,251228,444 North Wells Street,Submitted,444 North Wells Street,60654,4.0,false,NEAR NORTH SIDE,Office,73332,1903,1,689,87,3270016.4,,,,,44.6,124.9,44.2,123.8,544,7.4,41.89053894,-87.6340678,"(41.89053894, -87.6340678)"
2018,250051,Simeon Caree-CPS,Submitted,8235 S VINCENNES AVE,60620,1.0,false,CHATHAM,K-12 School,284691,2003,1,1481,26,12899731.3,17352568.2,,,,106.3,190.9,104.2,188,3067.7,10.8,41.744236,-87.635863,"(41.744236, -87.635863)"
2018,173683,676 La Salle Building,Not Submitted,676 N LaSalle St,60654,0.0,false,NEAR NORTH SIDE,,61000,,1,219,,,,,,,,,,,,,41.89454949,-87.63269715,"(41.89454949, -87.63269715)"
2018,251380,Motley School Apartments,Exempt,739 N Ada St,60642,,true,WEST TOWN,,57743,,1,,,,,,,,,,,,,,41.8954882,-87.66111127,"(41.8954882, -87.66111127)"
2018,252013,900 North Franklin,Submitted,900 North Franklin Street,60610,2.0,false,NEAR NORTH SIDE,Office,95866,1928,1,2112,40,5516555.7,452328.7,,,,62.3,166.1,60.7,161.7,941.8,9.8,41.89935826,-87.63609615,"(41.89935826, -87.63609615)"
2018,174157,The Bridgeport,Submitted,3450 S. Halsted St.,60608,1.0,false,BRIDGEPORT,Multifamily Housing,97813,2007,1,5147,1,4652917.1,10792083.8,,,,157.9,249,152.5,241.7,1347.3,13.8,41.84915346,-87.67089596,"(41.84915346, -87.67089596)"
2018,252078,UNO Soccer Academy High School,Not Submitted,5025 S ST LOUIS,60632,0.0,false,GAGE PARK,,93408,,1,638,,,,,,,,,,,,,41.80806486,-87.71097656,"(41.80806486, -87.71097656)"
2018,251617,Budlong Elem-CPS,Submitted,2701 W Foster Ave,60625,3.0,false,LINCOLN SQUARE,K-12 School,102352,1905,1,2054,67,1877351.7,4788375.2,,,,65.1,100.5,65.2,100.5,566.7,5.5,41.97552409,-87.69722301,"(41.97552409, -87.69722301)"
2018,103614,Ann & Robert H. Lurie Children's Hospital of Chicago,Submitted,225 E Chicago Ave,60611,2.5,false,NEAR NORTH SIDE,Hospital (General Medical & Surgical),1250000,2012,1,53649,52,117159072.3,166470765.2,,,1932965.9,228.5,403.8,226,400.2,28476.6,22.8,41.896764,-87.621559,"(41.896764, -87.621559)"
2018,103651,425 South Financial,Submitted,425 South Financial Place (440 South LaSalle),60605,2.5,false,LOOP,Office,1157744,1984,1,23067,60,88821900.5,1189749.6,,,,77.7,215.9,76.9,213.5,14840,12.8,41.87595944,-87.63219354,"(41.87595944, -87.63219354)"
2018,254347,New Malcolm X College,Submitted,1900 W Jackson Blvd,60612,3.0,false,Near West Side,College/University,545000,2016,1,8755,,28653314.1,28852302.6,,,,105.5,202.8,106.1,203.4,6299.4,11.6,41.8768705,-87.68381102,"(41.8768705, -87.68381102)"
2018,251576,Henry Elemen-CPS,Submitted,4250 N St Louis Ave,60618,4.0,false,IRVING PARK,K-12 School,90100,1904,1,211,95,1231367.3,1333977.5,,,,28.5,53.8,28.7,54.2,275.7,3.1,41.95872281,-87.71583845,"(41.95872281, -87.71583845)"
2018,166264,University Center Chicago,Submitted,525 S State St,60605,3.5,false,LOOP,Residence Hall/Dormitory,674000,2004,1,34561,73,24481171.7,25196108.1,,,,73.7,141,72.4,139.5,5411.1,8,41.8750023,-87.62716306,"(41.8750023, -87.62716306)"
2018,114008,Shoreline Park Condominium Association,Submitted,4950 N. Marine Drive,60640,3.5,false,UPTOWN,Multifamily Housing,388924,1953,1,16806,71,7222340.8,29276426.2,,,,93.8,131,94.4,130.3,2756.6,7.1,41.97275894,-87.65157513,"(41.97275894, -87.65157513)"
2018,173715,2738 N. Pine Grove,Submitted,2738 N. Pine Grove Ave.,60614,4.0,false,LINCOLN PARK,Multifamily Housing,103203,1927,1,4565,91,1552262.1,6987301.9,,,,82.7,113.2,83.9,114.4,629.4,6.1,41.92201051,-87.65461957,"(41.92201051, -87.65461957)"
2018,100637,Addison Towers,Submitted,510-534 Addison,60616,1.0,false,LAKE VIEW,Multifamily Housing,68667,1920,1,3676,3,1664446.6,8970830.8,,,,154.9,205,155.3,205.5,753.4,11,41.95402016,-87.6620278,"(41.95402016, -87.6620278)"
2018,103600,10 South LaSalle Street,Submitted,10 South LaSalle Street,60603,2.5,false,LOOP,Office,871962,1986,1,8608,50,53426426.7,891536.6,,,,62.3,172.6,61.2,169.6,8935.6,10.2,41.88160573,-87.6327278,"(41.88160573, -87.6327278)"
2018,233760,Park Newberry,Submitted,55 W. Delaware Place,60610,2.5,false,NEAR NORTH SIDE,Multifamily Housing,260055,1995,1,8600,37,5734777,24731826.8,,,,117.2,161.6,117.6,161.9,2267.7,8.7,41.89821936,-87.63056762,"(41.89821936, -87.63056762)"
2018,174498,Trio-Abacus,Submitted,660 W Wayman St,60661,4.0,false,NEAR WEST SIDE,Multifamily Housing,280146,2010,1,2211,91,5068734.1,8996726.8,,,,50.2,84.4,48.2,81.4,1321.1,4.7,41.887491,-87.644997,"(41.887491, -87.644997)"
2018,101030,Oakwood Shores Sr,Submitted,3750 S Cottage Grove,60653,4.0,false,OAKLAND,Multifamily Housing,76017,2012,1,,61,1918910.8,3530270.9,,,,71.7,119.4,72.1,119.3,506.7,6.7,41.82021138,-87.61246867,"(41.82021138, -87.61246867)"
2018,127877,Howard & Western Shopping Center,Submitted,7510-7578 North Western Avenue,60645,3.0,false,WEST RIDGE,Retail Store,69302,1957,1,698,,4072003.6,1698748.1,,,,83.3,190.3,84,191,767.7,11.1,42.01798909,-87.69083907,"(42.01798909, -87.69083907)"
2018,116810,Verde Condo Association,Submitted,680 N Green Street,60642,3.5,false,WEST TOWN,Multifamily Housing,70950,1999,1,2966,76,2294222,2606200,,,,69.1,129.1,66.2,124.7,520.1,7.3,41.89983093,-87.65764114,"(41.89983093, -87.65764114)"
2018,101363,1101 E Hyde Park,Submitted,1101 E Hyde Park Boulevard,60615,1.5,false,HYDE PARK,Multifamily Housing,69631,1923,1,2391,38,364763.3,5936799.6,,,,90.5,104.2,91.8,105.1,376,5.4,41.80224043,-87.60332678,"(41.80224043, -87.60332678)"
2018,251334,Seton Hall,Submitted,2425 N. Sheffield,60614,2.0,false,LINCOLN PARK,College/University,50174,1989,1,,,2197140.3,3847614.1,,,,120.5,203.1,119.1,201.5,569.9,11.4,41.92481459,-87.6532449,"(41.92481459, -87.6532449)"
2018,251287,SpringHill Suites O'Hare,Submitted,8101 W. Higgins,60631,1.0,false,NORWOOD PARK,Hotel,160000,2000,1,9373,6,13845592.3,11553399.8,,,,158.7,318.1,159.1,318.5,2917.1,18.2,41.98515127,-87.83015397,"(41.98515127, -87.83015397)"
2018,172761,Cosmopolitan Lofts Condominium Association,Submitted,1133 S. Wabash Ave.,60605,4.0,false,LOOP,Multifamily Housing,100448,1892,1,1578,98,1406395.7,2861103.6,,,,42.5,69.1,40.9,66.6,385.9,3.8,41.86863212,-87.62730687,"(41.86863212, -87.62730687)"
2018,102083,Pratt Blvd Place Condo Assoc,Submitted,1645-63 W Pratt condo Assoc,60626,3.5,false,ROGERS PARK,Multifamily Housing,68000,1930,1,2528,72,935208.7,3931513,,,,71.6,99.2,71.3,97.4,364.4,5.4,42.01036185,-87.66829765,"(42.01036185, -87.66829765)"
2018,134776,University Club of Chicago,Submitted,76 East Monroe Street,60603,2.0,false,LOOP,Hotel,144036,1907,1,2354,,10961104.6,29874998.8,,,,283.5,430.9,283.3,430.3,3410.3,23.7,41.880838,-87.624993,"(41.880838, -87.624993)"
2018,251272,Walmart Supercenter #01-5781,Submitted,8331 S Stewart Ave,60620,1.0,false,CHATHAM,Wholesale Club/Supercenter,148364,2012,1,3057,22,14009924.5,6864362.9,,,,140.7,313,139,310.9,2695.3,18.2,41.742502,-87.634048,"(41.742502, -87.634048)"
2018,159807,Sheridan Tower,Submitted,5650 N. Sheridan Rd.,60680,1.0,false,EDGEWATER,Multifamily Housing,119304,1967,1,8289,9,3004466.6,15973602.8,,,,159.1,211.1,160.9,211.8,1348.3,11.3,41.98449002,-87.65573421,"(41.98449002, -87.65573421)"
2018,159534,420 East Ohio,Submitted,420 East Ohio,60611,4.0,false,NEAR NORTH SIDE,Multifamily Housing,330285,1990,1,8110,67,7548490.4,17125337.1,,,,74.7,118.4,73.8,117.5,2165.4,6.6,41.8928582,-87.61664044,"(41.8928582, -87.61664044)"
2018,251348,Excel-Woodlawn-CPS,Submitted,7530 S SOUTH SHORE DR,60649,3.5,false,SOUTH SHORE,K-12 School,73930,1975,1,153,78,2722033.2,72311.5,,,,37.8,104.1,36.8,101.4,456.7,6.2,41.75961455,-87.55680138,"(41.75961455, -87.55680138)"
2018,116697,1322 1328 S WABASH AVE,Not Submitted,1322 1328 S WABASH AVE,60605,0.0,false,NEAR SOUTH SIDE,,166015,,1,2521,,,,,,,,,,,,,41.86863212,-87.62730687,"(41.86863212, -87.62730687)"
2018,105596,Commonwealth Apartments LLC,Submitted,2751-2765 N. Pine Grove Ave.,60614,2.0,false,LINCOLN PARK,Multifamily Housing,101893,1927,1,6465,45,3778643.3,4679688.5,,,,83,152.1,82.8,151.3,877.2,8.6,41.92201051,-87.65461957,"(41.92201051, -87.65461957)"
2018,101356,DePaul College Prep,Not Submitted,3633 N. California,60618,0.0,false,IRVING PARK,K-12 School,202400,1961,1,796,,,11418334.2,,,,,,,,,,41.94809411,-87.69742569,"(41.94809411, -87.69742569)"
2018,243578,(IL610) - 2400 Lakeview Condo,Submitted,2400 N. Lakeview,60614,3.0,false,LINCOLN PARK,Multifamily Housing,320368,1963,1,12088,48,7563571.5,22113583.8,,,,92.6,138.6,93.9,139.7,2432.9,7.6,41.92586851,-87.63943267,"(41.92586851, -87.63943267)"
2018,100878,1521 1523 W SHERWIN AVE,Not Submitted,1521 1523 W SHERWIN AVE,60626,0.0,false,ROGERS PARK,,107430,,1,2998,,,,,,,,,,,,,42.01036185,-87.66829765,"(42.01036185, -87.66829765)"
2018,135080,537 S. Dearborn St.,Submitted,537 S. Dearborn St.,60605,4.0,false,LOOP,Multifamily Housing,78000,1892,1,2037,73,2346988.6,1541257.2,,,,49.8,105,48.3,101.6,472.3,6.1,41.86863212,-87.62730687,"(41.86863212, -87.62730687)"
2018,160454,River North Park,Submitted,320 West Illinois St.,60654,4.0,false,NEAR NORTH SIDE,Multifamily Housing,461526,1985,1,11013,86,14422155.5,4509203.7,,,,41,97.8,41.4,98.7,2638.8,5.7,41.890778,-87.636431,"(41.890778, -87.636431)"
2018,231536,Neapolitan,Submitted,1212 N Wells,60610,1.0,false,NEAR NORTH SIDE,Multifamily Housing,117760,2001,1,4175,24,4466908.5,7454199.9,,,,101.2,172.7,97.5,166.4,1139.1,9.7,41.90436982,-87.63501568,"(41.90436982, -87.63501568)"
2018,119685,ECD Streeterville Hotel LLC,Submitted,216 E. Ontario,60611,1.0,false,NEAR NORTH SIDE,Hotel,89000,2001,1,7054,8,5992778.8,3429610.3,,,,105.9,229,104.5,224.6,1179.1,13.2,41.89579275,-87.62247957,"(41.89579275, -87.62247957)"
2018,109549,Lunt Avenue Condominium & Health Club,Submitted,1327-1337 W. Lunt Ave.,60626,3.0,false,ROGERS PARK,Multifamily Housing,59768,1925,1,1768,45,455205.2,4263133,,,,78.9,96.2,81.3,97.7,302.2,5.1,42.01036185,-87.66829765,"(42.01036185, -87.66829765)"
2018,100867,Rush University Medical Center,Submitted,1653 W Congress Pkwy,60612,1.0,false,NEAR WEST SIDE,Hospital (General Medical & Surgical),3888568,1982,19,120,9,466597141.6,362280220.6,247432610.7,,,276.8,510.4,273.1,502,113296.6,29.1,41.875121,-87.668005,"(41.875121, -87.668005)"
2018,250078,Henry Horner,Submitted,1815 W. MONROE STREET,60612,4.0,false,NEAR WEST SIDE,Multifamily Housing,483032,1969,3,8270,100,3487371.1,6096955.5,,,,19.8,33.5,19.5,33.1,904,1.9,41.88005275,-87.67231085,"(41.88005275, -87.67231085)"
2018,160270,Grand Kingsbury LLC,Submitted,520 N. Kingsbury,60654,1.5,false,NEAR NORTH SIDE,Multifamily Housing,497185,2007,1,15317,35,14769739.4,30764208.1,,,,91.6,148.1,92.4,148.8,4091.2,8.2,41.89101955,-87.64008503,"(41.89101955, -87.64008503)"
2018,251584,Deneen Eleme-CPS,Submitted,7240 S Wabash Ave,60619,1.0,false,GREATER GRAND CROSSING,K-12 School,87736,1955,1,534,22,3126190.4,5392175.6,,,,97.1,164.3,95.2,162,806.5,9.2,41.76239877,-87.62373586,"(41.76239877, -87.62373586)"
2018,260074,236-Senior Suites of Rainbow Beach,Submitted,2804 E. 77th Place,60649,1.0,false,SOUTH SHORE,Senior Care Community,60500,2000,1,3687,10,1897307.4,4472999.6,,,,105.3,165.4,106.4,166.7,553.2,9.1,41.76259226,-87.57231648,"(41.76259226, -87.57231648)"
2018,105921,1246 Pratt LLC,Submitted,1246 W. Pratt Blvd.,60626,3.5,false,ROGERS PARK,Multifamily Housing,65419,1934,1,2821,75,1280796.6,5245938.4,,,,99.8,139,97.6,135.3,491.7,7.5,42.01036185,-87.66829765,"(42.01036185, -87.66829765)"
2018,103312,199 E LAKE SHORE DR,Not Submitted,199 E LAKE SHORE DR,60611,0.0,false,NEAR NORTH SIDE,,69150,,1,1244,,,,,,,,,,,,,41.89579275,-87.62247957,"(41.89579275, -87.62247957)"
2018,254572,Carriage House,Submitted,1545 S State St,60605,4.0,false,NEAR SOUTH SIDE,Multifamily Housing,133500,1908,1,3162,73,2145903.4,8155952.4,,,,77.2,109.2,74.7,105.6,790.2,5.9,41.86821025,-87.62733306,"(41.86821025, -87.62733306)"
2018,116408,226-Senior Suites-Gage Park,Submitted,3244 W. 59th Street,60629,1.0,false,GAGE PARK,Senior Care Community,60000,2005,1,4114,25,1823557,4633399.7,,,,107.6,166.2,107.8,166.4,549.5,9.2,41.77517105,-87.71389848,"(41.77517105, -87.71389848)"
2018,158095,O'Hare Plaza II,Submitted,8755 W. Higgins Road,60631,4.0,false,OHARE,Office,256010,1969,1,8214,84,15048929.7,,,,,58.8,164.6,57.7,161.5,2503.6,9.8,41.98655423,-87.84550445,"(41.98655423, -87.84550445)"
2018,159529,"06620-Chicago, IL",Submitted,700 N Michigan Avenue,60611,1.0,false,NEAR NORTH SIDE,Retail Store,176600,2000,1,,2,18445316.4,1462000,,,,112.7,301.1,112.5,300.9,3146.3,17.8,41.89533925,-87.62493853,"(41.89533925, -87.62493853)"
2018,126126,Pete's Kedgie,Submitted,4700 S. Kedgie,60632,4.0,false,BRIGHTON PARK,Supermarket/Grocery Store,54000,1990,1,3326,100,669964.6,5206699.6,,,,108.8,136,,,388,7.2,41.80740022,-87.70533038,"(41.80740022, -87.70533038)"
2018,101865,100/150 S. Wacker,Submitted,150 South Wacker,60606,3.5,false,LOOP,Office,1281114,1971,1,5218,67,57907406.3,47509400.6,,,,82.3,165.5,80.9,164.2,12157.2,9.5,41.87965675,-87.63746431,"(41.87965675, -87.63746431)"
2018,251505,Hawthorne El-CPS,Submitted,3319 N Clifton Ave,60657,2.5,false,LAKE VIEW,K-12 School,71199,1954,1,2407,51,1434952.8,4249253,,,,79.8,119.1,77,116.1,464.4,6.5,41.94231102,-87.65755857,"(41.94231102, -87.65755857)"
2018,251492,Attucks -CPS,Exempt,5055 S State St,60609,,true,GRAND BOULEVARD,,62986,,1,104,,,,,,,,,,,,,41.80222267,-87.62509745,"(41.80222267, -87.62509745)"
2018,239096,Marina Towers Condominium Association,Submitted,300 N State Street,60654,1.5,false,NEAR NORTH SIDE,Multifamily Housing,768027,1962,2,23174,40,40125290.6,,,,,52.2,146.3,51,142.8,6675.4,8.7,41.88796008,-87.62913076,"(41.88796008, -87.62913076)"
2018,251435,LittleVilgAc-CPS,Submitted,2620 S Lawndale Ave,60623,1.0,false,SOUTH LAWNDALE,K-12 School,73770,1996,1,325,16,3855546.4,2058868.3,,,,80.2,175.6,78.8,174.2,750.8,10.2,41.84298853,-87.71755077,"(41.84298853, -87.71755077)"
2018,159249,"Onni Atrium Apartments, LP",Submitted,303 W. Division St,60610,2.5,false,NEAR NORTH SIDE,Multifamily Housing,143463,1976,1,5200,36,4299437.3,10252818,,,,101.4,159,100.7,156.7,1259.8,8.8,41.9037037,-87.63678593,"(41.9037037, -87.63678593)"
2018,101559,IL0303ZZ-METCALFE FED BLDG,Submitted,77 W JACKSON,60604,4.0,false,LOOP,Office,828102,1991,1,7635,77,34387296.1,,,,,41.5,116.3,41.2,115.3,5720.8,6.9,41.87755536,-87.6304139,"(41.87755536, -87.6304139)"
2018,254109,South Commons - 2901 S Michigan,Submitted,2901 S Michigan,60616,1.5,false,Douglas,Multifamily Housing,182246,1964,1,,37,3372410.6,17432198.8,,,,114.2,152.2,115.9,154.1,1487,8.2,41.8458598,-87.62921,"(41.8458598, -87.62921)"
2018,252270,Delaware II LLC,Submitted,25 E Delaware Pl,60611,2.5,false,NEAR NORTH SIDE,Multifamily Housing,106015,1928,1,3166,58,4175452.1,3239800.3,,,,69.9,142.4,68.9,140.3,866.7,8.2,41.89915259,-87.62730079,"(41.89915259, -87.62730079)"
2018,101867,125 South Wacker,Submitted,125 S Wacker Drive,60606,4.0,false,LOOP,Office,641962,1974,1,4106,52,40048895.9,,,,,62.4,174.7,62.9,176.2,6662.7,10.4,41.8797333,-87.63641137,"(41.8797333, -87.63641137)"
2018,255920,The Western,Submitted,1920 North Milwaukee Avenue,60647,1.5,false,LOGAN SQUARE,Multifamily Housing,53627,2017,1,1085,31,2051976.8,2053860.9,,,,76.6,147.4,74.5,144.2,450.5,8.4,41.9174,-87.68401,"(41.9174, -87.68401)"
2018,127079,GAP - 1454 - STATE STREET,Exempt,35 N State St,60602,,true,LOOP,,62357,,1,1876,,,,,,,,,,,,,41.88297354,-87.62783343,"(41.88297354, -87.62783343)"
2018,163223,Salem Baptist Church of Chicago,Submitted,10909 S. Cottage Grove Avenue,60628,1.0,false,PULLMAN,Worship Facility,91800,1960,1,3321,1,1772308.5,80368447.6,,,,894.8,973.3,894.3,971.9,4563.6,49.7,41.69635381,-87.60821945,"(41.69635381, -87.60821945)"
2018,254246,North Washington Park Manor,Submitted,550 E 50th Place,60615,4.0,false,Grand Boulevard,Multifamily Housing,53200,1985,1,2044,76,1005212.7,2852280.2,,,,72.5,109.2,73.3,110,318.7,6,41.8842525,-87.63245,"(41.8842525, -87.63245)"
2018,160164,Schulze Bakery (vacant),Exempt,40 E GARFIELD BLVD,60615,,true,WASHINGTON PARK,,291300,,1,1046,,,,,,,,,,,,,41.79562488,-87.62464034,"(41.79562488, -87.62464034)"
2018,260042,MEPT McClurg Court LLC,Submitted,333 E Ontario Street,60611,1.0,false,NEAR NORTH SIDE,Multifamily Housing,818201,1971,1,46484,8,34408143.4,82900182.7,,,,143.4,224.1,144.1,222.9,10127.5,12.4,41.89322808,-87.61866416,"(41.89322808, -87.61866416)"
2018,101907,225 West Washington,Submitted,225 West Washington,60606,4.0,false,LOOP,Office,539705,1987,1,6232,68,32823757.3,,,,,60.8,170.3,59.7,167.1,5460.7,10.1,41.88285621,-87.63499083,"(41.88285621, -87.63499083)"
2018,172500,Catalyst - Circle Rock,Submitted,5608 W. Washington Blvd,60644,3.5,false,AUSTIN,K-12 School,111030,1924,1,239,60,3872548.3,2075238.6,,,,53.6,117.3,51,111.1,754.5,6.8,41.8825252,-87.76612258,"(41.8825252, -87.76612258)"
2018,250076,Trumbull Park Homes,Submitted,2437 E. 106TH STREET,60617,1.0,false,SOUTH DEERING,Multifamily Housing,400023,1938,56,1511,1,10875340.6,72558781.6,,,,208.6,266.6,217.7,273.5,5663.2,14.2,41.70255901,-87.5642244,"(41.70255901, -87.5642244)"
2018,101038,FBI Chicago,Submitted,2111 W. Roosevelt Rd.,60608,4.0,false,NEAR WEST SIDE,Office,458947,2006,1,4782,85,25202625.4,12163446.9,,,59157.5,81.5,181.7,81.3,181.1,4843.3,10.6,41.86578401,-87.67979313,"(41.86578401, -87.67979313)"
2018,104849,660 W WRIGHTWOOD AVE,Not Submitted,660 W WRIGHTWOOD AVE,60614,0.0,false,LINCOLN PARK,,61020,,1,3103,,,,,,,,,,,,,41.92201051,-87.65461957,"(41.92201051, -87.65461957)"
2018,172069,The Renaissance at 87th St,Submitted,8653 S Sacramento Ave,60652,3.0,false,ASHBURN,Senior Care Community,66911,1999,1,13648,66,3102038.2,6170429.3,,,,138.6,226.6,138.9,226.7,843.8,12.6,41.74592047,-87.71315983,"(41.74592047, -87.71315983)"
2018,160425,Chestnut Place Apartments,Submitted,850 N.State Street,60610,3.5,false,NEAR NORTH SIDE,Multifamily Housing,257712,1982,1,8784,72,10630147.4,3033210.2,,,,53,127.9,52,125.5,1929.6,7.5,41.89836069,-87.62862299,"(41.89836069, -87.62862299)"
2018,253956,3611 W. Montrose Condominium Association,Submitted,3611 W. Montrose Ave.,60618,4.0,false,Irving Park,Multifamily Housing,50000,1996,1,1121,91,873489.1,2163628.9,,,,60.7,94.4,59.4,93,260.2,5.2,41.94662098,-87.70269173,"(41.94662098, -87.70269173)"
2018,252076,UNO Officer Donald J. Marquez Charter School,Not Submitted,2916 W 47TH ST,60632,0.0,false,BRIGHTON PARK,,64150,,1,439,,,,,,,,,,,,,41.80856277,-87.69718607,"(41.80856277, -87.69718607)"
2018,112437,415 Condominium Association,Submitted,415-421 W. Aldine Ave.,60657,4.0,false,LAKE VIEW,Multifamily Housing,140000,1927,1,3469,81,1652052.9,9283042.9,,,,78.1,102.7,79.2,103.8,767.9,5.5,41.9398511,-87.65844752,"(41.9398511, -87.65844752)"
2018,250164,Cumberland Centre - Building 1,Submitted,5440 North Cumberland Ave,60656,4.0,false,OHARE,Office,193449,1987,1,6931,76,6566701.1,5151560.2,,,,60.6,123,60.7,122.9,1366.1,7.1,41.97798769,-87.83747799,"(41.97798769, -87.83747799)"
2018,158387,Courtyard Chicago Downtown Mag Mile,Submitted,165 E Ontario St,60611-2822,2.5,false,NEAR NORTH SIDE,Hotel,286929,2003,1,10469,57,9695952.1,24444964.9,,,,119,184.1,119.9,184.8,2911.4,10.1,41.89313049,-87.62306158,"(41.89313049, -87.62306158)"
2018,109613,Cook County Department of Corrections Campus,Submitted,2700 S. California Ave.,60608,,true,SOUTH LAWNDALE,Prison/Incarceration,4570149,1926,57,94984,,189259204.4,469014477.8,,,,144,223.7,140.4,217.8,56397.6,12.3,41.84329289,-87.69598814,"(41.84329289, -87.69598814)"
2018,113026,1909 1935 S STATE ST,Not Submitted,1909 1935 S STATE ST,60616,0.0,false,NEAR SOUTH SIDE,,83419,,1,2423,,,,,,,,,,,,,41.84550365,-87.63055693,"(41.84550365, -87.63055693)"
2018,175979,245-Senior Suites Chicago Midway,Submitted,6800 Keating Avenue,60629,3.0,false,WEST LAWN,Senior Care Community,84139,2015,1,5296,69,1955809.6,2079400,,,,48,91,48.1,90.7,435.8,5.2,41.77517105,-87.71389848,"(41.77517105, -87.71389848)"
2018,110743,30 West Oak,Submitted,30 W.Oak Street,60610,1.0,false,NEAR NORTH SIDE,Multifamily Housing,213050,2006,1,4807,14,7072243.5,16364186.8,,,,110,173.6,107.7,171.1,2045.7,9.6,41.9037528,-87.63558845,"(41.9037528, -87.63558845)"
2018,158429,623 S Wabash Ave,Not Submitted,623 S Wabash Ave,60605,0.0,false,LOOP,,206130,,1,1470,,,,,,,,,,,,,41.87373031,-87.62547714,"(41.87373031, -87.62547714)"
2018,254527,The Strand,Submitted,6321 S Cottage Grove Ave,60637,4.0,false,WOODLAWN,Multifamily Housing,87275,2015,1,1185,99,1323879.9,1825356.6,,,,36.1,64.4,36.1,64,317.2,3.6,41.78040086,-87.60270024,"(41.78040086, -87.60270024)"
2018,101852,Sheraton Chicago Hotel & Towers,Submitted,301 E. North Water Street,60611,3.0,false,NEAR NORTH SIDE,Hotel,1158300,1990,1,58497,42,84150804.3,31692199.8,,,,100,232.1,99.1,229.6,15683,13.5,41.88916695,-87.61943672,"(41.88916695, -87.61943672)"
2018,112699,Sheridan Lakeside Condo Association (6249-59 N. Sheridan Rd.),Submitted,6259 N. Sheridan,60654,4.0,false,EDGEWATER,Multifamily Housing,70000,1923,1,1727,91,1535150.9,1532844,,,,43.8,84.4,43,81.8,336.8,4.8,41.99090057,-87.66660744,"(41.99090057, -87.66660744)"
2018,172306,Kingsbaker Court,Submitted,910 W. Van Buren,60607,3.0,false,NEAR WEST SIDE,Office,77000,1904,1,1282,53,3844737.1,1447070.4,,,,68.7,159.5,68.9,159.8,716.5,9.3,41.87685357,-87.64987929,"(41.87685357, -87.64987929)"
2018,175454,Signature Residences Condominium Association,Submitted,207 East 31st Street,60616-5183,4.0,false,DOUGLAS,Multifamily Housing,51375,2008,1,1820,92,781924.6,2110892.2,,,,56.3,85.8,54.5,83,242.2,4.7,41.84550365,-87.63055693,"(41.84550365, -87.63055693)"
2018,111555,300 W NORTH AVE,Not Submitted,300 W NORTH AVE,60610,0.0,false,LINCOLN PARK,,116032,,1,6352,,,,,,,,,,,,,41.90383853,-87.63667998,"(41.90383853, -87.63667998)"
2018,142759,124 W Polk,Submitted,124 W. Polk St.,60605,2.0,false,LOOP,Multifamily Housing,108010,1993,1,1421,42,4767785.5,1105309.8,,,,54.4,134.3,53.2,130.9,851.9,7.9,41.86863212,-87.62730687,"(41.86863212, -87.62730687)"
2018,175872,Piper's Alley,Submitted,230 W. North Avenue,60610,,true,LINCOLN PARK,Mixed Use Property,219532,1977,1,5032,,13105717.2,7137163.7,,,,92.2,201.3,91.6,200.7,2559.4,11.7,41.91153938,-87.63616909,"(41.91153938, -87.63616909)"
2018,172540,Willa Rawls Manor Apartments,Submitted,4120 S Indiana Ave,60653,3.5,false,GRAND BOULEVARD,Multifamily Housing,122111,1980,1,4092,59,4090657,3389358.6,,,,61.3,122.9,61.2,121.7,860.6,7,41.82021138,-87.61246867,"(41.82021138, -87.61246867)"
2018,250075,Frank O Lowden Homes,Submitted,200 W. 95TH STREET,60620,1.0,false,ROSELAND,Multifamily Housing,114868,1954,19,11083,1,1919181.8,112979625.9,,,,1000.3,1079.5,976.7,1054.7,6320.2,55,41.72174884,-87.6288572,"(41.72174884, -87.6288572)"
2018,251379,IBEW Local 134 Union Hall (expected 2016),Not Submitted,2722 S King Dr,60616,0.0,false,DOUGLAS,,57300,,1,150,,,,,,,,,,,,,41.84379747,-87.61826714,"(41.84379747, -87.61826714)"
2018,232841,222 E Pearson Condominium Association,Submitted,222 E Pearson,60611,1.5,false,NEAR NORTH SIDE,Multifamily Housing,221441,1964,1,7140,32,4590904,23756311.7,,,,128,170.7,127.8,170.1,2025.6,9.1,41.897879,-87.62063269,"(41.897879, -87.62063269)"
2018,255928,Moxy Chicago Downtown,Exempt,530 N La Salle Dr,60654,,true,NEAR NORTH SIDE,,62855,,1,2634,,,,,,,,,,,,,41.89213,-87.63513,"(41.89213, -87.63513)"
2018,101934,"321 N. Clark Property, LLC",Submitted,321 North Clark,60654,4.0,false,NEAR NORTH SIDE,Office,1025052.2,1987,1,10283,66,56158926.9,,,,,54.8,153.4,54.8,153.4,9342.8,9.1,41.88827025,-87.6306007,"(41.88827025, -87.6306007)"
2018,175106,5235 W LAKE ST,Not Submitted,5235 W LAKE ST,60644,0.0,false,AUSTIN,,51000,,1,9,,,,,,,,,,,,,41.88039405,-87.75826967,"(41.88039405, -87.75826967)"
2018,101448,2019 - 1401 W Roosevelt,Submitted,1401 W. Roosevelt,60608,4.0,false,NEAR WEST SIDE,Multifamily Housing,69385,2006,1,1904,100,1358461.2,,,,,19.6,54.8,18.8,52.5,226,3.3,41.84915346,-87.67089596,"(41.84915346, -87.67089596)"
2018,252044,Law/ Social Service Admin/ Faculty Housing,Submitted,1111 East 60th Street,60637,3.0,false,WOODLAWN,College/University,332861,1959,4,202,,10630724,31330,21313234.3,7367016.4,,118.2,186.7,114.4,182.7,3573.6,10.7,41.7850873,-87.59905769,"(41.7850873, -87.59905769)"
2018,256435,Incubator Building,Not Submitted,55 West 34th,60616,0.0,false,DOUGLAS,College/University,72292,1944,1,,,8875120.4,,7660864.6,,,228.7,471.2,,,1985.2,27.5,41.842325,-87.62715344,"(41.842325, -87.62715344)"
2018,101177,,Exempt,6901 6921 S PAXTON AVE,60649,,true,SOUTH SHORE,,73708,,1,3778,,,,,,,,,,,,,41.76259226,-87.57231648,"(41.76259226, -87.57231648)"
2018,159283,401 South Clinton,Submitted,401 S Clinton St,60607,1.5,false,NEAR WEST SIDE,Office,163900,1996,1,1699,23,14868878.4,,,,,90.7,254,90.7,254,2473.6,15.1,41.87634749,-87.64069198,"(41.87634749, -87.64069198)"
2018,251388,Greeley Elem-CPS,Submitted,832 W Sheridan Rd,60613,1.5,false,LAKE VIEW,K-12 School,60718,1978,1,823,39,3471996.6,47839.3,,,,58,160.9,57.2,158.8,580.2,9.6,41.95313507,-87.65060377,"(41.95313507, -87.65060377)"
2018,251723,Shields MS-CPS,Submitted,2611 W 48th St,60632,3.0,false,BRIGHTON PARK,K-12 School,95265,2012,1,518,61,3140599.6,2707169.9,,,,61.4,122.1,60.3,120,666.3,7,41.806552,-87.689787,"(41.806552, -87.689787)"
2018,118695,260-Senior Suites of Bridgeport,Submitted,2825 S. Halsted,60608,4.0,false,BRIDGEPORT,Senior Care Community,69455,2005,1,3044,64,1954178.6,4199700.2,,,,88.6,142.3,88.4,141.4,548.2,7.9,41.84915346,-87.67089596,"(41.84915346, -87.67089596)"
2018,229057,Park View Towers Condominium Association,Submitted,2740 N Pine Grove Ave,60614,1.0,false,LINCOLN PARK,Multifamily Housing,86222,1975,1,4375,21,5517558.8,1746662.5,,,,84.3,200.4,82,196.1,1010.7,11.7,41.93214333,-87.64141628,"(41.93214333, -87.64141628)"
2018,156868,21 W Goethe,Submitted,21 W. Goethe Street,60610,4.0,false,NEAR NORTH SIDE,Multifamily Housing,250000,1970,1,6489,97,3969063.6,9180300.3,,,,52.6,83,52.6,82.2,1147.9,4.6,41.90530524,-87.62979327,"(41.90530524, -87.62979327)"
2018,158668,Edith Spurlock Sampson Apts,Submitted,2720 N. Sheffield Ave,60614,1.5,false,LINCOLN PARK,Multifamily Housing,156471,1968,2,5107,32,4884759.1,20269809.3,,,,160.8,223.4,161.7,224.4,1889.3,12.1,41.93174258,-87.65422701,"(41.93174258, -87.65422701)"
2018,252039,Accelerator/High Energy Physics,Submitted,5604-20 South Ellis Avenue,60637,2.0,false,HYDE PARK,Laboratory,90986,1949,2,535,,13022259.7,,12416405.8,,,279.6,564.9,276.9,559.9,2990.9,32.9,41.793042,-87.601363,"(41.793042, -87.601363)"
2018,156139,,Exempt,300 308 N MICHIGAN AVE,60601,,true,LOOP,,90000,,1,78,,,,,,,,,,,,,41.88705869,-87.62457697,"(41.88705869, -87.62457697)"
2018,256409,8793,Submitted,310 E Superior St,60611,1.0,false,NEAR NORTH SIDE,College/University,61179,1955,1,12243,,5048221.2,7201013.9,,,,200.2,354.6,200.4,353.7,1222.3,20,41.89837,-87.62281702,"(41.89837, -87.62281702)"
2018,101871,123 N Wacker,Submitted,123 N Wacker,60606,3.0,false,LOOP,Office,587815,1986,1,5951,54,29829369.1,,,,,50.7,142.1,50.7,142.1,4962.5,8.4,41.88411984,-87.63649725,"(41.88411984, -87.63649725)"
2018,251635,Former West Pullman Elementary,Exempt,11941 S PARNELL AVE,60628,,true,WEST PULLMAN,,105536,,1,40,,,,,,,,,,,,,41.70172785,-87.63694332,"(41.70172785, -87.63694332)"
2018,251858,Alcott HS-CPS,Submitted,2957 N HOYNE AVE,60618,4.0,false,NORTH CENTER,K-12 School,51852,1889,1,1641,66,1093063.5,3243329.1,,,,83.6,124.7,80.1,121.1,354.1,6.8,41.935549,-87.68032107,"(41.935549, -87.68032107)"
2018,173831,Lakeview YMCA,Submitted,3321-3333 N.Marshfield,60657,1.0,false,LAKE VIEW,Fitness Center/Health Club/Gym,93228,1928,1,5457,,4240324.4,11305882,,,,166.8,254.7,168.8,256.6,1305.9,14,41.94246355,-87.66961411,"(41.94246355, -87.66961411)"
2018,112724,6119 6125 N Winchester,Submitted,6119-6125 N Winchester Ave,60660,1.0,false,WEST RIDGE,Multifamily Housing,57600,1951,1,1305,14,1460800,6486700.1,,,,138,189.3,141.5,191.6,587.6,10.2,41.99090057,-87.66660744,"(41.99090057, -87.66660744)"
2018,120965,53100512--CHICAGO,Submitted,1615 S Clark Street,60616,2.0,false,NEAR SOUTH SIDE,Supermarket/Grocery Store,61872,2013,1,2764,48,11494437.7,6981080.7,,,,298.6,638.7,299.2,639.2,2283.1,36.9,41.859892,-87.630216,"(41.859892, -87.630216)"
2018,252083,St Pauls United Church of Christ,Not Submitted,2335 N Orchard St,60614,0.0,false,LINCOLN PARK,,59380,,1,650,,,,,,,,,,,,,41.92502369,-87.64593826,"(41.92502369, -87.64593826)"
2018,113146,4101 4115 S MICHIGAN AVE,Not Submitted,4101 4115 S MICHIGAN AVE,60653,0.0,false,GRAND BOULEVARD,,69662,,1,,,,,,,,,,,,,,41.82021138,-87.61246867,"(41.82021138, -87.61246867)"
2018,103789,De La Salle Institute,Submitted,3434 South Michigan Ave,60616,3.0,false,DOUGLAS,K-12 School,165000,1954,1,1429,61,3112286.5,9594000.2,,,,77,113.9,74.6,111.3,1027.4,6.2,41.832219,-87.623316,"(41.832219, -87.623316)"
2018,102825,Ravenswood Court,Submitted,4510-4518 N. Ashland,60640,4.0,false,UPTOWN,Multifamily Housing,67500,2003,1,1123,94,342291.8,3679999.9,,,,59.6,71.4,57.5,69.2,252.4,3.7,41.97223008,-87.6645957,"(41.97223008, -87.6645957)"
2018,158873,Cloisters,Submitted,5801-11 S. Dorchester Ave.,60637,3.5,false,HYDE PARK,Multifamily Housing,191459,1928,1,3654,71,1909326.2,16161000.6,,,,94.4,116.6,95.6,117.9,1176,6.1,41.78926257,-87.59119396,"(41.78926257, -87.59119396)"
2018,251485,Emmet Elementary -CPS,Exempt,5500 W Madison St,60644,,true,AUSTIN,,79800,,1,115,,,,,,,,,,,,,41.88090411,-87.76377405,"(41.88090411, -87.76377405)"
2018,160440,Pittsfield Building,Not Submitted,55 E WASHINGTON ST,60602,0.0,false,LOOP,,320400,,1,16271,,,,,,,,,,,,,41.88267276,-87.63020062,"(41.88267276, -87.63020062)"
2018,109413,550 W. Surf,Submitted,550 W. Surf,60657,3.5,false,LAKE VIEW,Multifamily Housing,100000,1898,1,3840,78,1674046.6,8064154.7,,,,97.4,131.5,96,130.1,706.8,7.1,41.9398511,-87.65844752,"(41.9398511, -87.65844752)"
2018,125013,West Chatham Plaza,Submitted,122 - 160 W. 79th,60620,4.0,false,GREATER GRAND CROSSING,Strip Mall,68200,1986,1,167,,2256232.8,1747278,,,,58.7,119.5,59.1,120,468.2,6.9,41.75195613,-87.6285633,"(41.75195613, -87.6285633)"
2018,256441,,Exempt,3300 S FEDERAL ST,60616,,true,Douglas,,73233,,1,,,,,,,,,,,,,,41.8342998,-87.6292618,"(41.8342998, -87.6292618)"
2018,239946,Metropolitan Tower Condo Association,Submitted,310 S Michigan Ave,60604,3.0,false,LOOP,Multifamily Housing,579393,1924,1,11738,68,14269823.4,25900870.4,,,,69.3,115.9,67.7,114.2,3749.7,6.5,41.87797296,-87.62488735,"(41.87797296, -87.62488735)"
2018,146828,"Greenglen Park Property, LLC",Submitted,1373 West Greenleaf Ave,60626,4.0,false,ROGERS PARK,Multifamily Housing,75435,1925,1,1861,87,498394.3,4087584.4,,,,60.8,75.4,59.3,73,300,4,42.01036185,-87.66829765,"(42.01036185, -87.66829765)"
2018,254349,1116 W ADAMS ST,Not Submitted,1116 W ADAMS ST,60607,0.0,false,Near West Side,,120940,,1,2306,,,,,,,,,,,,,41.87987598,-87.65468643,"(41.87987598, -87.65468643)"
2018,105967,5424 S CORNELL AVE,Not Submitted,5424 S CORNELL AVE,60615,0.0,false,HYDE PARK,,61440,,1,2544,,,,,,,,,,,,,41.80224043,-87.60332678,"(41.80224043, -87.60332678)"
2018,252126,08270 - Ford City 14,Submitted,7601 South Cicero Avenue,60652,2.0,false,WEST LAWN,Movie Theater,72545,1990,1,48037,,7217376.3,4683310.1,,,,164,346.4,169.4,359.3,1449.5,20,41.75582921,-87.73699268,"(41.75582921, -87.73699268)"
2018,159652,3500 N Lake Shore,Submitted,3500 N Lake Shore Drive,60657,4.0,false,LAKE VIEW,Multifamily Housing,210000,1927,1,3037,94,2539810.9,10946312.7,,,,64.2,88.6,64.3,88.6,1003.9,4.8,41.94698509,-87.6424712,"(41.94698509, -87.6424712)"
2018,251542,Boone Elemen-CPS,Submitted,6710 N Washtenaw Ave,60645,1.5,false,WEST RIDGE,K-12 School,92344,1938,1,1929,35,1696219.8,8477040.9,,,,110.2,147.8,111.2,148.9,732.4,7.9,42.00373408,-87.69785671,"(42.00373408, -87.69785671)"
2018,251910,Chase Elemen-CPS,Submitted,2021 N Point St,60647,2.0,false,LOGAN SQUARE,K-12 School,84715,1894,1,322,45,2371614,4713603,,,,83.6,136.8,83.5,136.8,644.9,7.6,41.91821493,-87.69423382,"(41.91821493, -87.69423382)"
2018,171880,Noble Street Lofts Condominium,Submitted,515 N. Noble St.,60642,2.0,false,WEST TOWN,Multifamily Housing,66000,1989,1,2078,45,1575695.7,3732382.6,,,,80.4,126.2,76.9,121.2,460.4,7,41.89983093,-87.65764114,"(41.89983093, -87.65764114)"
2018,160436,The Bernardin,Submitted,747 Wabash Ave,60611,1.5,false,NEAR NORTH SIDE,Multifamily Housing,290070,2005,1,8801,40,9715772.4,10655153.8,,,,70.2,132.4,69.3,129.9,2182.3,7.5,41.89638889,-87.62646498,"(41.89638889, -87.62646498)"
2018,117248,Alpha Tower Apartments,Submitted,936 E. 47th Street,60653,1.0,false,KENWOOD,Multifamily Housing,136957,1983,1,11358,4,4602040.8,14515745.2,,,,139.6,205.4,139.5,204.5,1536.6,11.2,41.82021138,-87.61246867,"(41.82021138, -87.61246867)"
2018,251321,1150 West Fullerton Building,Submitted,1150 W. Fullerton,60614,3.0,false,LINCOLN PARK,College/University,52043,1994,1,601,,2004089.4,1853575,,,,74.1,145.2,73.2,144.8,431.9,8.3,41.92559618,-87.65814781,"(41.92559618, -87.65814781)"
2018,235845,The Elm at Clark,Submitted,1122 N Clark St,60610,1.5,false,NEAR NORTH SIDE,Multifamily Housing,356786,1989,1,14241,39,13209022.3,16517779.1,,,,83.3,152.3,80.8,147.5,3074.8,8.6,41.90237775,-87.63184484,"(41.90237775, -87.63184484)"
2018,100019,Dixon Building,Submitted,411 415 South Wells Street,60607,3.5,false,LOOP,Office,60000,1908,1,7,64,2273814.1,1776826.8,,,,67.5,137.2,65.3,132.9,472.7,7.9,41.87642552,-87.63335549,"(41.87642552, -87.63335549)"
2018,159905,The Townhouse Apartments,Submitted,7022 S South Shore Drive,60649,2.0,false,SOUTH SHORE,Multifamily Housing,130590,1950,1,7201,48,2969119,12281014.7,,,,116.8,162.4,113.4,157.9,1146.3,8.8,41.76739025,-87.56693295,"(41.76739025, -87.56693295)"
2018,241892,CityView Condominium Association (241892),Submitted,440 North McClurg Court,60611,3.5,false,NEAR NORTH SIDE,Multifamily Housing,506955,1991,1,15722,71,10240237.7,28350510.8,,,,76.1,115.3,72.9,109.9,3209.4,6.3,41.89028754,-87.61815831,"(41.89028754, -87.61815831)"
2018,134982,616 Fulton Lofts Condominium Association,Submitted,616 W. Fulton St.,60661,4.0,false,NEAR WEST SIDE,Multifamily Housing,161167,1997,1,3500,99,2797587.2,5181607.6,,,,49.5,82.4,47.6,79.7,740.6,4.6,41.88321395,-87.64336601,"(41.88321395, -87.64336601)"
2018,100438,Palmolive Building Condominium Association,Submitted,913 921 N Michigan Ave.,60611,1.0,false,NEAR NORTH SIDE,Multifamily Housing,397200,1929,1,9140,7,23157946.9,27646144.5,,,,127.9,236.3,126.6,235,5321.1,13.4,41.899795,-87.624109,"(41.899795, -87.624109)"
2018,102368,"Bradley Business Center II,LLC",Submitted,2500 W Bradley Place,60618,3.0,false,NORTH CENTER,Mixed Use Property,350000,1956,1,,63,5623644.8,11998557.1,,,,50.3,81,50.7,81.4,1572.9,4.5,41.95030519,-87.69252546,"(41.95030519, -87.69252546)"
2018,172154,Apostolic Church of God,Submitted,6320 S Dorchester Ave,60637,1.0,false,WOODLAWN,Worship Facility,216000,1977,1,1221,15,8530269.5,7899277,,,,76.1,149,74.1,146.9,1838.7,8.5,41.779819,-87.591495,"(41.779819, -87.591495)"
2018,252066,The Park Monroe Condominium Homes Association,Submitted,65 E. Monroe St.,60603,1.5,false,LOOP,Multifamily Housing,480820,2009,1,6497,36,21148565.5,5130212.4,,,,54.7,134.4,54.5,134.6,3790.9,7.9,41.880771,-87.625598,"(41.880771, -87.625598)"
2018,160342,The Seneca,Submitted,200 E Chestnut Street,60611,2.0,false,NEAR NORTH SIDE,Multifamily Housing,168457,1922,1,12914,12,6905369.4,14849645.2,,,,129.1,207.3,128.4,204.7,1937.5,11.5,41.89861832,-87.62140976,"(41.89861832, -87.62140976)"
2018,160242,Chatham Park Village Cooperative,Not Submitted,737 E 83rd Pl,60619,0.0,false,CHATHAM,,461300,,1,,,,,,,,,,,,,,41.743539,-87.60603,"(41.743539, -87.60603)"
2018,175777,4553 N Magnolia,Submitted,4553 N Magnolia,60640,4.0,false,UPTOWN,Multifamily Housing,66000,2004,1,1414,98,1022702.6,2105352,,,,47.4,76.9,46.1,75.6,282,4.3,41.97223008,-87.6645957,"(41.97223008, -87.6645957)"
2018,250055,Von Steuben-CPS,Submitted,5039 N KIMBALL AVE,60625,4.0,false,NORTH PARK,K-12 School,248453,1928,1,3520,87,3472030.7,10501825.4,,,,56.2,83.5,55.1,82.3,1135.4,4.6,41.97280582,-87.71281644,"(41.97280582, -87.71281644)"
2018,160414,Cambria Hotel,Submitted,32 w randolph,60601,4.0,false,LOOP,Hotel,246313,1926,1,2261,96,5852859.5,7186100,,,,52.9,97.2,53.1,97.3,1355.4,5.5,41.88503972,-87.62899559,"(41.88503972, -87.62899559)"
2018,157993,The Fisher Building-City Club,Submitted,343 S Dearborn St,60604,1.0,false,LOOP,Multifamily Housing,167940,1896,1,6233,5,7471587.4,13136000,,,,122.7,206.7,119.7,203.2,1940.7,11.6,41.87698814,-87.62918889,"(41.87698814, -87.62918889)"
2018,159646,(IL355) 339 W. Barry Condo,Submitted,339 W. Barry Ave,60657,1.0,false,LAKE VIEW,Multifamily Housing,108254,1964,1,3483,7,3090572.5,10997078.6,,,,130.1,186.6,131.9,188.3,1098.3,10.1,41.93734867,-87.6384621,"(41.93734867, -87.6384621)"
2018,101762,RICHARD J. DALEY CENTER,Submitted,50 W. WASHINGTON,60602,4.0,false,LOOP,Courthouse,1541766,1965,1,136,69,52153580.1,67500425,,,,77.6,140.7,74.8,136.6,12261.8,8,41.88409726,-87.63019634,"(41.88409726, -87.63019634)"
2018,164980,WTTW 11 - Main Campus,Submitted,5400 N. St. Louis,60625,1.0,false,NORTH PARK,Office,183047,1964,1,232,8,20765752.7,,,,,113.4,317.6,113.2,317.1,3454.7,18.9,41.97980527,-87.71769331,"(41.97980527, -87.71769331)"
2018,173951,Bernard Horwich JCC,Submitted,3003 Touhy Ave,60645,,true,WEST RIDGE,Mixed Use Property,86000,1950,1,4185,,5369600.9,12101842.3,,,,203.2,322.6,204.6,320.1,1536.1,17.9,42.01131854,-87.70525689,"(42.01131854, -87.70525689)"
2018,130726,"768 West Jackson, LLC",Submitted,768 W. Jackson Blvd.,60661,3.0,false,NEAR WEST SIDE,Multifamily Housing,56000,1885,1,2169,68,2372428.4,1249668,,,,64.7,142.1,63,137.5,461.1,8.2,41.87826383,-87.64674826,"(41.87826383, -87.64674826)"
2018,160198,"The Blackstone, A Renaissance Hotel",Submitted,636 South Michigan Avenue,60605,3.5,false,LOOP,Hotel,385000,2008,1,11465,58,16382312,22273060,,,,100.4,179.9,99.4,178.6,3908.5,10.2,41.87333117,-87.62422947,"(41.87333117, -87.62422947)"
2018,160372,AMLI River North,Submitted,71 West Hubbard St,60654,3.0,false,NEAR NORTH SIDE,Multifamily Housing,456710,2013,1,16043,67,14197918.9,16205298.5,,,,66.6,124.3,65.5,123.2,3222.8,7.1,41.890021,-87.630345,"(41.890021, -87.630345)"
2018,172584,ASPIRA Early College High School,Not Submitted,3986 W. Barry Ave.,60641,0.0,false,AVONDALE,K-12 School,58000,1945,1,1038,66,1901488.2,1195005.2,,,,53.4,113.4,53,112.7,379.8,6.5,41.93769413,-87.72679086,"(41.93769413, -87.72679086)"
2018,251461,"Washington Elementary, Harold -CPS",Exempt,9130 S University Ave,60619,,true,BURNSIDE,,81500,,1,,,,,,,,,,,,,,41.72857136,-87.59664019,"(41.72857136, -87.59664019)"
2018,100947,C7131YAT (22222),Submitted,7131 S YATES BLVD,60649,4.0,false,SOUTH SHORE,Multifamily Housing,70000,1930,1,3185,94,835967.3,3464391.6,,,,61.4,85.4,62.1,86.1,323.1,4.6,41.76259226,-87.57231648,"(41.76259226, -87.57231648)"
2018,101410,2400 W BALMORAL AVE,Not Submitted,2400 W BALMORAL AVE,60625,0.0,false,LINCOLN SQUARE,,96094,,1,1198,,,,,,,,,,,,,41.97208235,-87.70234945,"(41.97208235, -87.70234945)"
2018,102332,Truman College,Submitted,1145 West Wilson Ave,60640,4.0,false,UPTOWN,College/University,954142,1976,3,2937,,26246226.5,34021397.2,,,,63.2,114.5,63.1,114.1,6173.5,6.5,41.9645338,-87.65900659,"(41.9645338, -87.65900659)"
2018,251583,Holden Eleme-CPS,Submitted,1104 W 31st St,60608,1.5,false,BRIDGEPORT,K-12 School,99762,1890,1,,39,1713378.4,7310047.6,,,,90.4,125,89,123.5,673.3,6.7,41.8383138,-87.65432099,"(41.8383138, -87.65432099)"
2018,251434,Nicholson Ma-CPS,Submitted,6006 S Peoria St,60621,1.0,false,ENGLEWOOD,K-12 School,66000,1958,1,1294,20,1841363.6,5698664.2,,,,114.2,168.8,110.9,164.7,609,9.2,41.78449033,-87.64768152,"(41.78449033, -87.64768152)"
2018,137657,Union Park Lofts Condominium Association,Submitted,1327 W. Washington Blvd.,60607,4.0,false,NEAR WEST SIDE,Multifamily Housing,100200,2006,1,,97,1395340.8,3145510.5,,,,45.3,72,43.7,69.4,399.2,4,41.87399385,-87.651678,"(41.87399385, -87.651678)"
2018,175508,53100507--CHICAGO,Submitted,5353 N. Elston,60630,2.0,false,JEFFERSON PARK,Supermarket/Grocery Store,63165,2013,1,,49,11162170.3,6408756.2,,,,278.2,601.3,279.5,598.8,2197.4,34.8,41.97887489,-87.75758499,"(41.97887489, -87.75758499)"
2018,103647,135 S LaSalle Property LLC,Submitted,135 S. LaSalle Street,60603,4.0,false,LOOP,Office,1547120,1934,1,12977,49,61121578.5,81291243.3,,32367515.3,,113,184.8,113.1,185,16192,10.5,41.87977276,-87.63155683,"(41.87977276, -87.63155683)"
2018,105653,601 Condominium,Submitted,601 E 32nd Street,60616,1.0,false,DOUGLAS,Multifamily Housing,190893,1958,1,9120,1,4922980.3,35822790,,,,213.4,269.3,205,258.1,2721.7,14.3,41.84550365,-87.63055693,"(41.84550365, -87.63055693)"
2018,251364,Rowe Elementary / Lozano Bilingual,Exempt,1424 N Cleaver Street,60642,,true,WEST TOWN,,63861,,1,1031,,,,,,,,,,,,,41.90750342,-87.66397662,"(41.90750342, -87.66397662)"
2018,251521,Mccormick-CPS,Submitted,2712 S Sawyer Ave,60623,2.0,false,SOUTH LAWNDALE,K-12 School,100260,1905,1,150,47,2507383.6,5199415.1,,,,76.9,124.5,74.6,121.6,693.3,6.9,41.84204286,-87.70654161,"(41.84204286, -87.70654161)"
2018,255022,Kenect Chicago,Not Submitted,505 N GREEN ST,60642,0.0,false,West Town,,270413,,1,1267,,,,,,,,,,,,,41.89133277,-87.64871387,"(41.89133277, -87.64871387)"
2018,132435,1335 1345 W LAKE ST,Not Submitted,1335 1345 W LAKE ST,60607,0.0,false,NEAR WEST SIDE,,85200,,1,2676,,,,,,,,,,,,,41.88492505,-87.65972076,"(41.88492505, -87.65972076)"
2018,175276,7650 N PAULINA ST,Not Submitted,7650 N PAULINA ST,60626,0.0,false,ROGERS PARK,,54096,,1,3126,,,,,,,,,,,,,42.01036185,-87.66829765,"(42.01036185, -87.66829765)"
2018,100683,7000 S PARNELL AVE,Not Submitted,7000 S PARNELL AVE,60621,0.0,false,ENGLEWOOD,,54892,,1,3604,,,,,,,,,,,,,41.7761313,-87.64068948,"(41.7761313, -87.64068948)"
2018,162360,Jordan Comm-CPS,Submitted,7414 N Wolcott Ave,60626,1.5,false,ROGERS PARK,K-12 School,66950,1996,1,614,34,1868231,4339614.8,,,,92.7,146.2,92.3,144.4,541.3,8.1,42.01711706,-87.67802784,"(42.01711706, -87.67802784)"
2018,173757,C(IL292) - Oakdale Towers,Submitted,431 W. Oakdale,60657,4.0,false,LAKE VIEW,Multifamily Housing,136304,1927,1,1387,82,1150791.9,8308617.1,,,,69.4,87.6,70.6,88.9,632.8,4.6,41.9398511,-87.65844752,"(41.9398511, -87.65844752)"
2018,132823,Bria of Forest Edge,Submitted,8001 S. Western Avenue,60620,1.0,false,ASHBURN,Senior Care Community,72786,1963,1,,1,5845233.7,15306680.4,,,,290.6,445.7,285.5,438,1785.4,24.5,41.74785085,-87.6824488,"(41.74785085, -87.6824488)"
2018,160142,U.S. Cellular Plaza - 8430 _ Goby LLC,Submitted,8430 West Bryn Mawr Avenue,60631,3.0,false,OHARE,Office,200150,1981,1,,61,12392899.2,,,,,61.9,173.4,61.9,173.4,2061.7,10.3,41.981131,-87.837979,"(41.981131, -87.837979)"
2018,165062,Adler Planetarium,Submitted,1300 S. Lakeshore Dr.,60605,1.0,false,NEAR SOUTH SIDE,Museum,137000,1930,1,3335,,11192912.5,9650555.9,,,,152.1,302.7,148.9,299,2374.7,17.3,41.86637151,-87.60660909,"(41.86637151, -87.60660909)"
2018,244333,(IL252) - Huron Pointe Condo Assn,Submitted,421 W. Huron,60610,4.0,false,NEAR NORTH SIDE,Multifamily Housing,181627,2001,1,3962,81,3747273.4,8805999.7,,,,69.1,108.7,69.7,108.9,1091.1,6,41.89447352,-87.63958245,"(41.89447352, -87.63958245)"
2018,113688,Cedar Street Corporation,Submitted,70 E Cedar Street,60611,4.0,false,NEAR NORTH SIDE,Multifamily Housing,75600,1929,1,1468,70,1522605.3,5491972.6,,,,92.8,132.7,93.2,131.9,545,7.2,41.89579275,-87.62247957,"(41.89579275, -87.62247957)"
2018,105012,1016 1030 W BALMORAL AVE,Not Submitted,1016 1030 W BALMORAL AVE,60640,0.0,false,EDGEWATER,,60000,,1,2700,,,,,,,,,,,,,41.97223008,-87.6645957,"(41.97223008, -87.6645957)"
2018,250047,Julian HS -CPS,Exempt,10330 S Elizabeth St,60643,,true,WASHINGTON HEIGHTS,,282100,,1,1467,,,,,,,,,,,,,41.70535258,-87.65466206,"(41.70535258, -87.65466206)"
2018,231019,Aqua,Submitted,225 N Columbus Drive,60601,4.0,false,LOOP,Multifamily Housing,1295101,2009,1,34432,28,32591707.2,148429782.9,,,,139.8,190.8,141.3,192.4,13305.9,10.3,41.88656117,-87.62004511,"(41.88656117, -87.62004511)"
2018,251731,Hibbard-CPS,Submitted,3244 W Ainslie St,60625,2.0,false,ALBANY PARK,K-12 School,169900,1916,1,752,49,4467597.7,10247188.4,,,,86.6,137,84.3,134.5,1287.5,7.6,41.97084978,-87.71038201,"(41.97084978, -87.71038201)"
2018,137352,901 W Jackson,Submitted,901 W Jackson,60607,4.0,false,NEAR WEST SIDE,Office,54741,1907,1,208,,1309900.9,1806230.6,,,,56.9,101.6,57.3,102,313.9,5.7,41.87768536,-87.64991516,"(41.87768536, -87.64991516)"
2018,159738,4100 Marine Dr,Submitted,4100 N Marine Dr,60613,2.5,false,UPTOWN,Multifamily Housing,249600,1964,1,6306,56,8773746.5,6829261.6,,,,62.5,127.2,61.8,126.4,1822.4,7.3,41.95588646,-87.64627434,"(41.95588646, -87.64627434)"
2018,119629,Costco #0380 Lincoln Park,Submitted,2746 N. Clybourn Avenue,60614,4.0,false,LINCOLN PARK,Supermarket/Grocery Store,142374,2001,1,3683,77,14086865.1,13129060,,,,191.2,373.9,189.4,372,3040.9,21.4,41.93130757,-87.67737064,"(41.93130757, -87.67737064)"
2018,242638,411 W Ontario,Submitted,411 W. Ontario Street,60654,4.0,false,NEAR NORTH SIDE,Multifamily Housing,261854,1994,1,6601,98,3233067.9,10661268.7,,,,53.1,77.3,50.9,74.3,1104.1,4.2,41.89308327,-87.63969027,"(41.89308327, -87.63969027)"
2018,102568,Grace Shores,Submitted,639 - 655 W. Grace Street,60613,2.0,false,LAKE VIEW,Multifamily Housing,52953,1973,1,3170,41,2008344.1,7796899.7,,,,185.2,260.8,185.9,261.6,748.2,14.1,41.95402016,-87.6620278,"(41.95402016, -87.6620278)"
2018,252317,4423 N Sheridan,Submitted,4423 N. Sheridan Rd,60640,4.0,false,UPTOWN,Multifamily Housing,92940,1927,1,5590,83,1352643,7765346.7,,,,98.1,128.5,98.2,128.5,637.5,6.9,41.96260451,-87.65471079,"(41.96260451, -87.65471079)"
2018,105244,Lakefront Management Inc (1329-1341 W. Estes Ave.),Submitted,1329-1341 W. Estes Ave.,60626,4.0,false,ROGERS PARK,Multifamily Housing,78367,1927,1,1833,89,625204.6,3637170,,,,54.4,71.1,52.6,68.4,297.2,3.8,42.01036185,-87.66829765,"(42.01036185, -87.66829765)"
2018,160305,550 St. Clair Condominium,Submitted,550 N St. Clair St,60611,1.5,false,NEAR NORTH SIDE,Multifamily Housing,170645,2008,1,3598,34,6093606.8,11261593.5,,,,101.7,169.3,101.9,169.5,1611.9,9.4,41.89205598,-87.62271597,"(41.89205598, -87.62271597)"
2018,251595,Nixon-CPS,Submitted,2121 N Keeler Ave,60639,1.5,false,HERMOSA,K-12 School,130113,1902,1,974,35,3142170.5,7605008.7,,,,82.6,129,80.4,126.6,926.7,7.1,41.91952065,-87.73118053,"(41.91952065, -87.73118053)"
2018,160197,Symphony Center,Submitted,220 South Michigan Avenue,60604,1.0,false,LOOP,Performing Arts,294211,1997,1,7105,,15511265.9,18788624.2,,11333843.9,,155.1,249.7,154.6,249.7,4175.8,14.2,41.87899988,-87.62512408,"(41.87899988, -87.62512408)"
2018,113485,1366 North Dearborn Condominium Association,Submitted,1366 N Dearborn,60610,2.0,false,NEAR NORTH SIDE,Multifamily Housing,77280,1923,1,1337,46,1292496.3,6267013.3,,,,97.8,132,97.6,130.8,547.9,7.1,41.9037528,-87.63558845,"(41.9037528, -87.63558845)"
2018,251451,Madero Middl-CPS,Submitted,3202 W 28th St,60623,1.0,false,SOUTH LAWNDALE,K-12 School,62071,1996,1,376,23,2151851.5,3267299.6,,,,87.3,152.3,85.8,150.8,531.5,8.6,41.840909,-87.705078,"(41.840909, -87.705078)"
2018,160322,210 N. Wells,Submitted,210 N. Wells,60606,2.0,false,LOOP,Multifamily Housing,387842,2011,1,10327,17,19329457.7,11422047.4,,,,79.3,170.5,77.4,166.5,3822.4,9.9,41.886028,-87.633976,"(41.886028, -87.633976)"
2018,158391,Godfrey Hotel,Submitted,127 w Huron,60654,4.0,false,NEAR NORTH SIDE,Hotel,175000,2013,1,15409,97,1700602.2,11310521.5,,,,74.3,95.1,74.7,95.4,883.7,5,41.89465307,-87.6321365,"(41.89465307, -87.6321365)"
2018,160304,The Tides at Lakeshore East,Submitted,360 E South Water St,60601,1.5,false,LOOP,Multifamily Housing,484765,2007,1,23460,38,15768602.4,30665852.8,,,,95.8,157.5,96.4,157.4,4252.1,8.8,41.88673545,-87.61817365,"(41.88673545, -87.61817365)"
2018,146962,1440 S WABASH AVE,Not Submitted,1440 S WABASH AVE,60605,0.0,false,NEAR SOUTH SIDE,,62057,,1,1595,,,,,,,,,,,,,41.86863212,-87.62730687,"(41.86863212, -87.62730687)"
2018,250022,Fosco Park,Submitted,1312 South Racine,60608,2.0,false,NEAR WEST SIDE,Other - Recreation,60500,2005,1,1415,,5018267.2,4983025.4,,,,165.3,318.7,166.5,320,1099.5,18.2,41.86475039,-87.65742311,"(41.86475039, -87.65742311)"
2018,250074,Lawndale Gardens,Submitted,2530 S. WASHTENAW AVE,60608,1.0,false,SOUTH LAWNDALE,Multifamily Housing,99462,1943,8,9764,18,2800583.2,10083789.2,,,,129.5,185.3,125.9,181.7,1001.5,10.1,41.84605513,-87.6930498,"(41.84605513, -87.6930498)"
2018,103615,NMH Prentice Womens Hospital,Submitted,250 E Superior Street,60611,3.0,false,NEAR NORTH SIDE,Hospital (General Medical & Surgical),945000,2007,1,55045,62,85548052.4,111225856.4,,,,208.2,377.1,210.5,381.7,20139.9,21.3,41.89627286,-87.62088103,"(41.89627286, -87.62088103)"
2018,255958,,Exempt,625 W Adams St,60661,,true,NEAR WEST SIDE,,639549,,1,1575,,,,,,,,,,,,,41.8817032,-87.6428535,"(41.8817032, -87.6428535)"
2018,250133,70800789 -- 47th ~ Damen,Submitted,4620 South Damen Avenue,60609,3.0,false,NEW CITY,Supermarket/Grocery Store,76290,2003,1,2021,68,9044707,3882283.3,,,,169.4,385.4,169.6,385.3,1710.9,22.4,41.80988111,-87.67451119,"(41.80988111, -87.67451119)"
2018,172711,242-Senior Suites Chicago Wright Campus,Submitted,4255 N Oak Pak Ave,60634,2.0,false,DUNNING,Senior Care Community,54800,2013,1,,45,995498.8,2053100.1,,,,55.6,90.2,57,91.4,274.7,5,41.94530408,-87.80186746,"(41.94530408, -87.80186746)"
2018,173934,5316 S Dorchester,Submitted,"5316 S Dorchester Ave,",60615,1.0,false,HYDE PARK,Multifamily Housing,53407,1990,1,3328,23,975139,5889325.7,,,,128.5,166.9,125.7,163.9,475,8.9,41.80224043,-87.60332678,"(41.80224043, -87.60332678)"
2018,251429,WellsMayo-CPS,Submitted,245 E 37th St,60653,3.0,false,DOUGLAS,K-12 School,62750,1961,1,1389,67,1231721.1,3220260.7,,,,70.9,108.8,70.3,108.2,376,6,41.827401,-87.620126,"(41.827401, -87.620126)"
2018,141321,950 W. Huron Condominium Association,Submitted,950 W. Huron St.,60642,4.0,false,WEST TOWN,Multifamily Housing,78288,2001,1,1637,81,1513682.6,3312133.1,,,,61.6,98.6,61.4,96.8,427.7,5.5,41.8999205,-87.65738734,"(41.8999205, -87.65738734)"
2018,255942,Viridian on Sheridan,Not Submitted,734 W Sheridan Rd,60613,0.0,false,LAKE VIEW,,127723,,1,1162,,,,,,,,,,,,,41.95481,-87.65036,"(41.95481, -87.65036)"
2018,159800,Metropolitan Condominiums,Submitted,5320 N Sheridan Road,60640,1.5,false,EDGEWATER,Multifamily Housing,370000,1984,1,13495,38,15067647.9,4449300,,,,52.7,126.7,51.8,124,2743,7.4,41.97927148,-87.65551373,"(41.97927148, -87.65551373)"
2018,251685,Johnson College Prep,Submitted,6350 S Stewart St,60621,1.0,false,ENGLEWOOD,K-12 School,63816,1963,1,657,28,2289119,5816468.9,,,,127,196.1,124.9,192.8,689.8,10.8,41.77833596,-87.63556329,"(41.77833596, -87.63556329)"
2018,250056,Young-CPS,Submitted,211 S LAFLIN ST,60607,1.0,false,NEAR WEST SIDE,K-12 School,430443,1975,1,6823,5,27151798.6,47197784.6,,,,172.7,291.8,173.3,290.9,7024,16.3,41.87825891,-87.6636621,"(41.87825891, -87.6636621)"
2018,243913,990 North Lake Shore Drive,Submitted,990 North Lake Shore Drive,60611,1.0,false,NEAR NORTH SIDE,Multifamily Housing,296542,1973,1,8237,21,14293069.3,11802488,,,,88,176.7,86.5,173.9,3004.7,10.1,41.90026302,-87.61990168,"(41.90026302, -87.61990168)"
2018,252253,Northwest Tower,Submitted,1170 W Erie,60642,1.0,false,WEST TOWN,Multifamily Housing,139677,1972,1,10826,30,2875350.4,15105900.4,,,,128.7,171.2,130.2,172.1,1280.7,9.2,41.89331019,-87.65678282,"(41.89331019, -87.65678282)"
2018,250068,POLICE TRAINING ACADEMY,Submitted,1300 W. Jackson Blvd.,60607,1.0,false,NEAR WEST SIDE,Adult Education,180000,1975,1,4275,,12011686.7,16174675.4,,,,156.6,281.2,155.9,279.2,2857.4,15.9,41.87842264,-87.66057334,"(41.87842264, -87.66057334)"
2018,134779,CDM Center,Submitted,243 S. Wabash,60604,2.0,false,LOOP,College/University,184461,1916,1,30,,12633063.1,8698172.2,,,,115.6,241.3,116,241.7,2563.7,13.9,41.87849608,-87.62558789,"(41.87849608, -87.62558789)"
2018,251396,Hammond Elem-CPS,Submitted,2819 W 21st Place,60623,2.0,false,SOUTH LAWNDALE,K-12 School,59692,1913,1,2970,50,1557307.8,3622531.8,,,,86.8,136.8,87.3,137.3,451.5,7.6,41.85254282,-87.69629775,"(41.85254282, -87.69629775)"
2018,255028,1001 South State,Submitted,1001 South State Street,60605,3.0,false,Loop,Multifamily Housing,509567,2016,1,15370,65,16089460,13274847.8,,,,57.6,115.8,57.1,115.2,3381.8,6.6,41.869863,-87.62736512,"(41.869863, -87.62736512)"
2018,251906,Sabin Magnet-CPS,Submitted,2216 W HIRSCH ST,60622,1.5,false,WEST TOWN,K-12 School,95219,1930,1,3513,33,2426818.8,6585944.3,,,,94.7,144,95.3,144.9,753.5,7.9,41.90740406,-87.68287819,"(41.90740406, -87.68287819)"
2018,172252,Sacred Heart Home Inc,Submitted,1550 S Albany Ave,60623,2.0,false,NORTH LAWNDALE,Residential Care Facility,71584,1912,1,,,1021549.4,12212497.9,,,,184.9,219.1,186.8,219.6,818.6,11.4,41.84725035,-87.71737883,"(41.84725035, -87.71737883)"
2018,113199,30 E. Division Condominium Association,Submitted,30 E. Division,60610,2.0,false,NEAR NORTH SIDE,Multifamily Housing,72000,1977,1,2853,25,3300025,1448301.6,,,,65.9,149.5,64.2,144.4,625.9,8.7,41.9037528,-87.63558845,"(41.9037528, -87.63558845)"
2018,175383,Chicago Metropolitan Housing Development Corporation,Submitted,5152-5178 S. King Dr.,60615,2.5,false,WASHINGTON PARK,Multifamily Housing,58656,1915,1,1896,60,349815.3,4508551.6,,,,82.8,97.4,83.1,97.4,297.7,5.1,41.80224043,-87.60332678,"(41.80224043, -87.60332678)"
2018,244102,River City - 800 South Wells,Submitted,800 South Wells,60607,4.0,false,LOOP,Multifamily Housing,993312,1986,1,29752,54,31617959.9,30241698.9,,,,62.3,121.1,61.8,120.6,6866.4,6.9,41.87141897,-87.63422224,"(41.87141897, -87.63422224)"
2018,252217,Lakeshore Sport & Fitness Lincoln Park,Not Submitted,1320 W Fullerton Ave,60614,0.0,false,LINCOLN PARK,,185000,,1,,,,,,,,,,,,,,41.92526123,-87.66146616,"(41.92526123, -87.66146616)"
2018,173774,2828 N Burling,Submitted,2828 N Burling Street,60657,4.0,false,LAKE VIEW,Multifamily Housing,60665,1965,1,1837,87,1753819.2,754315.2,,,,41.3,94,41.7,94.9,331.8,5.5,41.9398511,-87.65844752,"(41.9398511, -87.65844752)"
2018,175754,Reside at Randolph: 120 N. Green St,Submitted,120/120-134 North Green Street,60607,1.0,false,NEAR WEST SIDE,Multifamily Housing,67090,1930,1,3427,1,2504104.3,7076352.1,,,,142.8,215.3,139.4,211.5,792.5,11.8,41.884251,-87.648727,"(41.884251, -87.648727)"
2018,103696,111 South Wacker,Submitted,111 South Wacker,60606,4.0,false,LOOP,Office,1248730,2004,1,12587,71,77412445.5,,,,,62,173.6,60.8,170.1,12878.7,10.3,41.880335,-87.636667,"(41.880335, -87.636667)"
2018,172547,,Exempt,2222 S MICHIGAN AVE,60616,,true,NEAR SOUTH SIDE,,103900,,1,2,,,,,,,,,,,,,41.85215031,-87.62464535,"(41.85215031, -87.62464535)"
2018,250115,City Hall,Submitted,121 N. La Salle St.,60602,1.0,false,LOOP,Office,411500,1911,1,12471,17,24804772.6,44182998.1,,,,167.6,281.5,170.1,284.8,6473.4,15.7,41.88385328,-87.63167966,"(41.88385328, -87.63167966)"
2018,251954,Gilman-Smith and Bobs Roberts,Submitted,5835 S. Drexel Ave.,60637,4.0,false,HYDE PARK,Laboratory,223605,1953,2,,,7960158.5,,19342800.3,,,122.1,203.7,122.3,204,2608.6,11.7,41.781317,-87.604346,"(41.781317, -87.604346)"
2018,160438,155 North Wacker,Submitted,155 N. Wacker,60606,4.0,false,LOOP,Office,1327735,2009,1,8567,68,73057164,,,35509117.9,,81.8,178.4,80.6,175.6,14025.4,10.6,41.884658,-87.636809,"(41.884658, -87.636809)"
2018,238049,740 Fulton Condominium Association,Submitted,740 W Fulton St,60661,2.0,false,NEAR WEST SIDE,Multifamily Housing,164230,2007,1,5093,41,5966240.3,9091899.2,,,,91.7,159.8,88.6,154.3,1475.5,9,41.88719418,-87.64722371,"(41.88719418, -87.64722371)"
2018,102409,Senn Achieve-CPS,Submitted,5900 N GLENWOOD AVE,60660,1.5,false,EDGEWATER,K-12 School,291204,1912,1,4077,39,12304654.7,20564473.9,,,,112.9,192.5,113,192.6,3139.3,10.8,41.98901511,-87.66668203,"(41.98901511, -87.66668203)"
2018,135660,Webster Square Apartments,Submitted,558 w. Webster Ave,60614,3.5,false,LINCOLN PARK,Multifamily Housing,77966,2014,1,1685,71,2521478.2,2618454.5,,,,65.9,125.8,65,122.5,558.6,7.2,41.9218859,-87.64289415,"(41.9218859, -87.64289415)"
2018,253968,Kilpatrick Renaissance,Submitted,4655 W. Berteau,60641,3.5,false,Portage Park,Multifamily Housing,79246,2015,1,2672,51,3044429.7,1086369,,,,52.1,122,51.3,119.6,564.2,7.1,41.946169,-87.74654251,"(41.946169, -87.74654251)"
2018,101579,"First Praire Shores, LLC",Submitted,2901 S King Drive,60616,1.0,false,DOUGLAS,Multifamily Housing,289267,1960,1,26767,20,4959451.2,34687089.4,,,,137.1,173.9,138.7,174.8,2667.5,9.2,41.84146488,-87.61667463,"(41.84146488, -87.61667463)"
2018,251586,Lasalle II-CPS,Submitted,1148 N Honore St,60622,2.0,false,WEST TOWN,K-12 School,92173,1900,1,1089,42,1629885.1,8468415.4,,,,109.6,146,105,141.2,721,7.8,41.90245706,-87.67402856,"(41.90245706, -87.67402856)"
2018,251776,Matthew Manor,Submitted,271 N. Albany,60612,2.0,false,EAST GARFIELD PARK,Multifamily Housing,52800,1996,1,2161,28,1101895.2,3827595.7,,,,93.4,134.6,93.9,135.2,386.6,7.3,41.88619564,-87.70330877,"(41.88619564, -87.70330877)"
2018,100623,1345 1359 W ESTES AVE,Not Submitted,1345 1359 W ESTES AVE,60626,0.0,false,ROGERS PARK,,76125,,1,5942,,,,,,,,,,,,,42.01036185,-87.66829765,"(42.01036185, -87.66829765)"
2018,101409,238-Senior Suites of Kelvyn Park,Submitted,2715 N. Cicero,60629,3.5,false,BELMONT CRAGIN,Senior Care Community,76000,2008,1,2958,60,1925337,4299599.6,,,,81.9,130.3,82,129.8,548.7,7.2,41.92039417,-87.75616669,"(41.92039417, -87.75616669)"
2018,119689,303 W Erie,Not Submitted,303 W Erie St.,60654,0.0,false,NEAR NORTH SIDE,Office,52154,1907,1,154,,5057785,1121500.7,,,,118.5,294.1,115.6,285.8,901,17.3,41.89392378,-87.6358118,"(41.89392378, -87.6358118)"
2018,251745,Amundsen HS-CPS,Submitted,5110 N Damen Ave,60625,3.0,false,LINCOLN SQUARE,K-12 School,218950,1917,1,3133,68,4565215.1,13841232.3,,,,84.1,124.8,85.9,126.9,1494.7,6.8,41.97462468,-87.68031709,"(41.97462468, -87.68031709)"
2018,242633,530 North Lake Shore Drive,Submitted,530 North Lake Shore Drive,60611,4.0,false,NEAR NORTH SIDE,Multifamily Housing,514175,2003,1,7381,86,9026098,24007001,,,,64.2,98.2,64.9,98.5,2776.7,5.4,41.89211944,-87.61494973,"(41.89211944, -87.61494973)"
2018,175474,West Side Realty Corporation (300 S. Ashland Ave.),Submitted,300 S. Ashland Ave.,60612,1.0,false,NEAR WEST SIDE,Office,65885,1968,1,34,14,6008310.2,,,,,91.2,255.3,91.2,255.3,999.6,15.2,41.877588,-87.667672,"(41.877588, -87.667672)"
2018,117167,MooGoong Terrace,Submitted,4848 N. Kedzie Ave,60625,2.5,false,ALBANY PARK,Multifamily Housing,55125,1983,1,3680,51,2175269.4,1816615.7,,,,72.4,145.1,70.7,139.6,458.4,8.3,41.97208235,-87.70234945,"(41.97208235, -87.70234945)"
2018,239630,Plaza 440 Private Residences,Submitted,440 N. Wabash,60611,2.0,false,NEAR NORTH SIDE,Multifamily Housing,474980,1991,1,20826,21,15678491.4,36615683.7,,,,110.1,173.4,111.6,174.9,4553.2,9.6,41.89032564,-87.62711962,"(41.89032564, -87.62711962)"
2018,251925,Peter V. Byrne Hall,Submitted,2219 N. Kenmore,60614,2.0,false,LINCOLN PARK,College/University,77485,1968,1,2403,,1905434.8,8796703.9,,,,138.1,188.1,133.1,182.7,784.2,10.1,41.922073,-87.654665,"(41.922073, -87.654665)"
2018,251245,3800 Lake Shore Drive Condo Association,Submitted,3800 N Lake Shore Drive,60613,1.0,false,LAKE VIEW,Multifamily Housing,249095,1927,1,5217,26,14823932.2,74772.7,,,,59.8,166.9,57.4,160.1,2470.1,9.9,41.95273621,-87.64559131,"(41.95273621, -87.64559131)"
2018,241533,565 West Quincy Condo Association,Submitted,565 West Quincy,60661,4.0,false,NEAR WEST SIDE,Multifamily Housing,382715,2009,1,8571,67,14049582.2,4188159.9,,,,47.7,114.3,48.1,115.5,2559.8,6.7,41.878622,-87.641992,"(41.878622, -87.641992)"
2018,129920,The Thompson Building,Submitted,350 N. Clark St.,60654,1.0,false,NEAR NORTH SIDE,Office,111033,1912,1,2655,18,10181145.3,2559900.1,,,,114.8,281,113.3,277.3,1829.7,16.5,41.88857037,-87.63107707,"(41.88857037, -87.63107707)"
2018,102766,Brandon Shores Condo Association,Submitted,6150 N Kenmore,60660,1.0,false,EDGEWATER,Multifamily Housing,54000,1962,1,4665,8,2316854.5,4976510.5,,,,135.1,216.9,130.6,207.2,649.8,12,41.99090057,-87.66660744,"(41.99090057, -87.66660744)"
2018,148904,3727 3741 N MILWAUKEE AVE,Not Submitted,3727 3741 N MILWAUKEE AVE,60641,0.0,false,Irving Park,,57585,,1,2305,,,,,,,,,,,,,41.9461514,-87.74708,"(41.9461514, -87.74708)"
2018,157165,Las Americas Apartments,Submitted,1611 S. Racine Ave,60608,3.5,false,LOWER WEST SIDE,Multifamily Housing,123500,1951,1,7565,76,2499982.6,9068605,,,,93.7,133.8,91.5,130.4,897.6,7.3,41.85914429,-87.65602559,"(41.85914429, -87.65602559)"
2018,251797,RML Specialty Hospital,Submitted,3534 W Van Buren,60624,3.0,false,EAST GARFIELD PARK,Other - Specialty Hospital,190000,1984,1,4865,,15426685.8,25148798,,,,213.6,366.3,209.9,361.1,3902.2,20.5,41.875444,-87.714197,"(41.875444, -87.714197)"
2018,157919,North Park Village Apartments,Submitted,"5801 N. Pulaski Rd., Bldg. H",60646,4.0,false,NORTH PARK,Residential Care Facility,275000,1913,1,,,10124652.8,6694642.4,,,,61.2,128.6,59.4,123.8,2040,7.4,41.98580055,-87.72846172,"(41.98580055, -87.72846172)"
2018,175954,Walmart Supercenter #01-5617,Submitted,4626 W. Diversey Ave.,60639,1.5,false,HERMOSA,Wholesale Club/Supercenter,116720,2013,1,,34,8627474,8567696.6,,,,147.3,284,145.6,282,1890.4,16.2,41.93162246,-87.74256249,"(41.93162246, -87.74256249)"
2018,254151,Astor Villa Condominium Association,Submitted,1430 N Astor,60610,4.0,false,Near North Side,Multifamily Housing,111150,1976,1,2115,66,4496292.7,1387152,,,,52.9,126.4,51.7,122.8,821.7,7.4,41.9086825,-87.62773,"(41.9086825, -87.62773)"
2018,251354,"King Elementary, William H.",Exempt,740 S CAMPBELL AVE,60612,,true,NEAR WEST SIDE,,51400,,1,28,,,,,,,,,,,,,41.87181368,-87.68913531,"(41.87181368, -87.68913531)"
2018,165425,SmithVillage,Submitted,2320 W 113th Place,60643,4.0,false,MORGAN PARK,Senior Care Community,385000,2006,4,7490,97,11074915.3,,,,,28.8,80.5,28.8,80.5,1842.5,4.8,41.6981819,-87.66236671,"(41.6981819, -87.66236671)"
2018,140794,(IL599) - Parc Orleans,Submitted,1546 N. Orleans,60610,4.0,false,NEAR NORTH SIDE,Multifamily Housing,116130,2002,1,2670,83,3176261.5,3566527.9,,,,58.1,108.8,57.2,106,717.9,6.2,41.9037528,-87.63558845,"(41.9037528, -87.63558845)"
2018,101766,181 West Madison,Submitted,181 W Madison Street,60602,4.0,false,LOOP,Office,1082248,1990,1,12200,56,73423476.3,,,,40254.6,67.9,190,,,12218,11.3,41.88158551,-87.63338486,"(41.88158551, -87.63338486)"
2018,256079,Oakwood Shores 2B & 2D,Submitted,3859 S. Vincennes Avenue,60653,4.0,false,OAKLAND,Multifamily Housing,221040,2013,13,1069,98,4033628.9,3920285.1,,,,36,69.7,35.5,68,879.3,4,41.88425,-87.63245,"(41.88425, -87.63245)"
2018,251956,Carlson,Submitted,949 E. 58th St.,60637,2.0,false,HYDE PARK,Laboratory,67021,1927,1,,,6260665.2,,20799479.1,,,403.8,634.9,407.1,638.6,2422.6,36.1,41.789531,-87.602855,"(41.789531, -87.602855)"
2018,134835,Fairbanks Lofts,Submitted,900 S. Wabash,60605,4.0,false,LOOP,Multifamily Housing,75000,2000,1,52,82,1212457.6,2189689.3,,,,45.4,75.9,43.7,73.5,318,4.2,41.86863212,-87.62730687,"(41.86863212, -87.62730687)"
2018,251741,Healy-CPS,Submitted,3010 S PARNELL AVE,60616,2.0,false,BRIDGEPORT,K-12 School,114704,1962,1,894,48,2895906.3,6270729.2,,,,79.9,128.1,77.5,125.5,814.8,7.1,41.83941849,-87.64076006,"(41.83941849, -87.64076006)"
2018,256263,Fulton West,Submitted,1330 W. Fulton Street,60657,3.5,false,NEAR WEST SIDE,Office,307948,2017,1,,65,11680217.7,7990615.4,,,,63.9,133.4,63.3,132.9,2367.6,7.7,41.87461,-87.65149477,"(41.87461, -87.65149477)"
2018,157988,Union League Club Of Chicago,Submitted,65 W. Jackson,60604,1.0,false,LOOP,Hotel,311794,1926,1,187,12,13003149.1,49229996.1,,10312043.9,,232.7,312.7,232.6,312.7,5321.5,17.1,41.87787288,-87.63001693,"(41.87787288, -87.63001693)"
2018,160211,633 N St. Clair,Submitted,633 N St. Clair,60611,4.0,false,NEAR NORTH SIDE,Office,632163,1991,1,24052,75,27941611.8,7719,,,,44.2,123.8,43.6,122.2,4648.9,7.4,41.893497,-87.622686,"(41.893497, -87.622686)"
2018,115316,5858 Shore Manor Condominium Homeowners Association,Submitted,5858 N. Sheridan Road,60660,3.0,false,EDGEWATER,Multifamily Housing,73500,1960,1,4109,46,1275333.9,6218799.9,,,,102,137.4,104.8,139.7,542.5,7.4,41.99090057,-87.66660744,"(41.99090057, -87.66660744)"
2018,251241,212 East Cullerton CA,Submitted,212 E. Cullerton,60616,2.0,false,NEAR SOUTH SIDE,Multifamily Housing,158136,2004,1,5660,45,5091516.1,6785450.9,,,,75.1,135.2,73.3,131.4,1207.5,7.6,41.85554,-87.621981,"(41.85554, -87.621981)"
2018,100303,6747 6759 S OGLESBY AVE,Not Submitted,6747 6759 S OGLESBY AVE,60649,0.0,false,SOUTH SHORE,,56358,,1,3276,,,,,,,,,,,,,41.76259226,-87.57231648,"(41.76259226, -87.57231648)"
2018,101918,Randolph-Wells Building,Not Submitted,205 W Randolph St,60606,0.0,false,LOOP,,207507,,1,7839,,,,,,,,,,,,,41.8841105,-87.63418465,"(41.8841105, -87.63418465)"
2018,113158,2001 S CALUMET AVE,Not Submitted,2001 S CALUMET AVE,60616,0.0,false,NEAR SOUTH SIDE,,107847,,1,,,,,,,,,,,,,,41.84550365,-87.63055693,"(41.84550365, -87.63055693)"
2018,251459,Casals Eleme-CPS,Submitted,3501 W Potomac Ave,60651,1.0,false,HUMBOLDT PARK,K-12 School,66550,1988,1,771,12,3005859.1,4067625.4,,,,106.3,190.6,103.5,183.6,716.1,10.8,41.90419008,-87.71412545,"(41.90419008, -87.71412545)"
2018,128243,4909 W DIVISION ST,Not Submitted,4909 W DIVISION ST,60651,0.0,false,AUSTIN,,88336,,1,3458,,,,,,,,,,,,,41.90231302,-87.74920023,"(41.90231302, -87.74920023)"
2018,117948,Jackson Square Nursing Home,Submitted,5130 W. Jackson Blvd.,60644,1.0,false,AUSTIN,Senior Care Community,110407,1980,1,11696,5,6104968.8,14799358.1,,,,189.3,295.6,187.9,290.1,1801.7,16.3,41.88039405,-87.75826967,"(41.88039405, -87.75826967)"
2018,113591,1200 Condominium Association,Submitted,1200 North Lake Shore Drive,60610,1.0,false,NEAR NORTH SIDE,Multifamily Housing,96384,1925,1,2797,16,1823430.8,8951952.6,,,,111.8,150.5,112.4,149.5,778.8,8.1,41.9037528,-87.63558845,"(41.9037528, -87.63558845)"
2018,251871,South Shore-CPS,Submitted,1955 E 75TH ST,60649,4.0,false,SOUTH SHORE,K-12 School,213710,2010,1,2165,84,7440797.5,,,,,34.8,97.5,34.7,97.3,1237.9,5.8,41.75883,-87.577162,"(41.75883, -87.577162)"
2018,102055,740 750 W ADDISON ST,Not Submitted,740 750 W ADDISON ST,60613,0.0,false,LAKE VIEW,,57600,,1,1047,,,,,,,,,,,,,41.95402016,-87.6620278,"(41.95402016, -87.6620278)"
2018,251794,Parish_MissionofOurLadyoftheAngels,Submitted,3808 W Iowa Street,60651,4.0,false,HUMBOLDT PARK,Other,110959,1950,4,214,,408316.4,4602430.6,,,,45.2,53.9,45.5,54.2,312.4,2.8,41.89754415,-87.7221429,"(41.89754415, -87.7221429)"
2018,159044,Lidia Puchinska Apartments,Submitted,838 N. Noble Street,60642,4.0,false,WEST TOWN,Multifamily Housing,268851,1965,2,4230,79,4384365.4,19275571.1,,,,88,120.9,88.9,121.9,1753.2,6.5,41.89750905,-87.66328018,"(41.89750905, -87.66328018)"
2018,113768,(IL614) - Constellation Condominium Association,Submitted,1555 N Dearborn Parkway,60610,2.0,false,NEAR NORTH SIDE,Multifamily Housing,117884,1962,1,3293,29,2579291.2,9712116.1,,,,104.3,147.8,103.5,143.9,945,8,41.9037528,-87.63558845,"(41.9037528, -87.63558845)"
2018,251511,BrightonPark-CPS,Submitted,3825 S Washtenaw Ave,60632,3.5,false,BRIGHTON PARK,K-12 School,80730,1919,1,2262,51,2661448.4,4600468.4,,,,90,152.1,88.1,150.1,687.1,8.5,41.82369378,-87.69186352,"(41.82369378, -87.69186352)"
2018,124312,Elston Plaza,Exempt,5033 N Elston Ave,60630,,true,ALBANY PARK,,86894,,1,8509,,,,,,,,,,,,,41.97217299,-87.7466969,"(41.97217299, -87.7466969)"
2018,111959,Dickens Place Condominium Association,Submitted,2100 North Racine,60614,4.0,false,LINCOLN PARK,Multifamily Housing,73000,1900,1,1168,96,906251.1,2268998.8,,,,43.5,67.4,42,65.2,271.3,3.7,41.92201051,-87.65461957,"(41.92201051, -87.65461957)"
2018,251614,Kozminski Elementary Academy -CPS,Exempt,936 E 54th St,60615,,true,HYDE PARK,,100600,,1,6444,,,,,,,,,,,,,41.79848025,-87.6023543,"(41.79848025, -87.6023543)"
2018,255954,Elevate Lincoln Park,Submitted,930 W Altgeld St,60614,4.0,false,LINCOLN PARK,Multifamily Housing,320600,2018,1,3336,99,7821634.7,1316563.2,,,,28.5,72.6,28.4,72.6,1371.2,4.3,41.9252162,-87.6429218,"(41.9252162, -87.6429218)"
2018,175981,860 Evergreen LLC,Not Submitted,860 W Evergreen Ave,60642,0.0,false,NEAR NORTH SIDE,,104689,,1,1080,,,,,,,,,,,,,41.90611149,-87.65013185,"(41.90611149, -87.65013185)"
2018,243920,Newberry Plaza Condominium Association,Submitted,1030 N State Street,60610,2.5,false,NEAR NORTH SIDE,Multifamily Housing,758456,1970,1,3772,31,22156176.8,47710332.2,,,,92.1,147.8,89.5,143.7,6220.1,8.2,41.90159271,-87.62890282,"(41.90159271, -87.62890282)"
2018,175605,1513 N WELLS ST,Not Submitted,1513 N WELLS ST,60610,0.0,false,NEAR NORTH SIDE,,70213,,1,1673,,,,,,,,,,,,,41.9037528,-87.63558845,"(41.9037528, -87.63558845)"
2018,101681,Presence Resurrection Medical Center,Submitted,7435 West Talcott Avenue,60631,2.0,false,NORWOOD PARK,Hospital (General Medical & Surgical),1096075,1953,2,54774,41,100663997.2,153400785.9,,,,231.8,404.1,232.9,403.6,24894.7,22.7,41.98632417,-87.81456571,"(41.98632417, -87.81456571)"
2018,139602,4541 N SHERIDAN RD,Not Submitted,4541 N SHERIDAN RD,60640,0.0,false,UPTOWN,,61706,,1,,,,,,,,,,,,,,41.97223008,-87.6645957,"(41.97223008, -87.6645957)"
2018,173845,1338-1354 W Argyle,Submitted,1338-1354 W Argyle St,60640,3.5,false,UPTOWN,Multifamily Housing,51150,1931,1,1795,56,594690.8,5493900.3,,,,119,145.3,119.2,144.7,390.7,7.6,41.97223008,-87.6645957,"(41.97223008, -87.6645957)"
2018,104239,517-25 W. Brompton Ave.,Submitted,517-25 W. Brompton Ave.,60657,4.0,false,LAKE VIEW,Multifamily Housing,52304,1924,1,1281,89,466290.7,3119450.4,,,,68.6,87.6,67.1,86.1,243.3,4.7,41.9398511,-87.65844752,"(41.9398511, -87.65844752)"
2018,134126,1111 N. Clark St.,Submitted,1111 N. CLARK ST,60610,1.0,false,NEAR NORTH SIDE,Automobile Dealership,90000,1910,1,3981,,4722446.8,12377300.3,,,,190,291.3,189.9,291,1443.1,16,41.90248079,-87.63099565,"(41.90248079, -87.63099565)"
2018,250118,Norwegian American Hospital,Submitted,1044 N. Francisco Ave,60622,3.5,false,WEST TOWN,Hospital (General Medical & Surgical),312898,1917,2,22153,60,34747057.4,28136130.3,,,,201,405.4,201,404.4,7275.1,23.3,41.899824,-87.699299,"(41.899824, -87.699299)"
2018,242148,(IL337) - Museum Park Place,Submitted,1841 S Calumet Ave,60616,4.0,false,NEAR SOUTH SIDE,Multifamily Housing,407616,2006,1,8847,80,10062919.5,18476822.4,,,,70,116.7,70,115.2,2655.5,6.5,41.85728279,-87.61931697,"(41.85728279, -87.61931697)"
2018,250114,Zelda Ormes Apartments,Submitted,116 W ELM ST,60610,3.5,false,NEAR NORTH SIDE,Multifamily Housing,159276,1975,1,10313,80,3356585.7,10506610.8,,,,87,128.3,87.1,127,1116.5,7,41.903163,-87.631828,"(41.903163, -87.631828)"
2018,250128,CCD,Submitted,5700 S. Maryland Av.,60637,1.0,false,HYDE PARK,Hospital (General Medical & Surgical),1205371,2013,1,63576,5,147914430.9,2024690,180114902.9,,,273.8,525.1,273.6,524.2,36674.6,30.4,41.7910213,-87.60552924,"(41.7910213, -87.60552924)"
2018,115376,Conservancy at North Park Condo Assoc IV,Submitted,3950 W. Bryn Mawr Ave.,60659,4.0,false,NORTH PARK,Multifamily Housing,54096,1995,1,2847,95,863304.2,2707408.8,,,,66,97.2,66.5,97.1,287.4,5.3,41.99046172,-87.70620782,"(41.99046172, -87.70620782)"
2018,103495,7465 S SOUTH SHORE DR,Not Submitted,7465 S SOUTH SHORE DR,60649,0.0,false,SOUTH SHORE,,85230,,1,4750,,,,,,,,,,,,,41.76259226,-87.57231648,"(41.76259226, -87.57231648)"
2018,234374,"(IL554-H) - Kinzie Station, Hi-Rise",Submitted,330 N Jefferson Court,60661,2.5,false,NEAR WEST SIDE,Multifamily Housing,272937,2000,1,1060,39,6926237.2,16507212.6,,,,85.9,134.6,85.5,132.6,2029.1,7.4,41.88774849,-87.64394791,"(41.88774849, -87.64394791)"
2018,175421,7219 N Sheridan Rd,Submitted,7219 N Sheridan Rd,60626,1.0,false,ROGERS PARK,Multifamily Housing,52998,1928,1,1822,9,758665,6741435.5,,,,141.5,173.6,135.3,165.4,484.3,9.1,42.01036185,-87.66829765,"(42.01036185, -87.66829765)"
2018,251376,Ashburn Comm-CPS,Submitted,8300 S St Louis Ave,60652,2.5,false,ASHBURN,K-12 School,58580,1953,1,1930,52,945500.7,3626460.4,,,,78,110.2,78.5,110.6,349.9,6,41.7418994,-87.70981348,"(41.7418994, -87.70981348)"
2018,251567,PershingWest-CPS,Submitted,3200 S CALUMET AVE,60644,2.5,false,DOUGLAS,K-12 School,128716,1990,1,509,56,2365136.3,7670897.4,,,,78,114,75.8,111.8,800.9,6.2,41.83649153,-87.61819083,"(41.83649153, -87.61819083)"
2018,103699,George W Dunne Cook County Office Building,Submitted,69 W. Washington Street,60602,4.0,false,LOOP,Office,821526,1965,1,3050,73,29523247.8,30114697.8,,,,72.6,139.1,72.2,137.6,6511.1,7.9,41.88287346,-87.62989783,"(41.88287346, -87.62989783)"
2018,255148,Gill Park Cooperative,Submitted,810 W. Grace,60613,4.0,false,Lake View,Multifamily Housing,227000,1973,1,12767,93,2656845.9,16424299.9,,,,84.1,108.7,84.5,109.2,1314.4,5.8,41.9544929,-87.6502935,"(41.9544929, -87.6502935)"
2018,115022,Yesteryear Condo Association,Submitted,4221 N Paulina,60613,4.0,false,LAKE VIEW,Multifamily Housing,77680,1936,1,1517,84,534585.3,3900839.9,,,,57.1,72,55.5,70.3,296.1,3.8,41.95402016,-87.6620278,"(41.95402016, -87.6620278)"
2018,171886,North & Talman Elderly Apartments,Submitted,1600 N Talman,60647,3.5,false,WEST TOWN,Multifamily Housing,60000,2008,1,2288,75,1099445,2966100.1,,,,67.8,103.2,67.6,102.2,340.5,5.7,41.92075046,-87.70152825,"(41.92075046, -87.70152825)"
2018,157599,Dearborn Tower Condominium Association,Submitted,1530 S. State St.,60645,4.0,false,NEAR SOUTH SIDE,Multifamily Housing,737110,2001,1,14612,99,10959466.8,22323121.1,,,,45.2,73.4,45.9,73.4,3009,4.1,41.86096129,-87.6280798,"(41.86096129, -87.6280798)"
2018,252038,Crerar Library,Submitted,5730 South Ellis Avenue,60637,2.0,false,HYDE PARK,Library,168656,1984,1,,,5222751.8,,6841095.2,6868079.9,,112.3,172.6,111.6,172,1685.1,10,41.79055503,-87.60281313,"(41.79055503, -87.60281313)"
2018,251594,Raby HS -CPS,Exempt,3545 W Fulton St,60624,,true,EAST GARFIELD PARK,,156248,,1,1262,,,,,,,,,,,,,41.88590426,-87.71539434,"(41.88590426, -87.71539434)"
2018,100447,211 E. Chicago Ave.,Submitted,211 E. Chicago Ave.,60611,3.0,false,NEAR NORTH SIDE,Office,394230,1965,1,4793,62,21707403.3,16189794,,,,96.1,197.3,96.5,197.6,4471.3,11.3,41.89644968,-87.62256575,"(41.89644968, -87.62256575)"
2018,156854,(IL272) - Delaware Place Private Res,Submitted,33 West Delaware Place,60610,3.0,false,NEAR NORTH SIDE,Multifamily Housing,217055,1985,1,10423,49,9457907,3554577.1,,,,60,139.2,59.5,137.9,1762.3,8.1,41.89887705,-87.62936387,"(41.89887705, -87.62936387)"
2018,251690,Chicago Military Academy-Bronzeville -CPS,Exempt,3533 S Giles Ave,60653,,true,DOUGLAS,,121900,,1,471,,,,,,,,,,,,,41.83033232,-87.61897054,"(41.83033232, -87.61897054)"
2018,160163,Ivy Apartment at the Imperial,Submitted,2437 N. Southport Avenue,60614,1.0,false,LINCOLN PARK,Senior Care Community,187503,1903,1,15136,29,7793168.4,18285153.5,,,,139.1,218.8,137.1,214,2267.7,12.1,41.92526747,-87.66299998,"(41.92526747, -87.66299998)"
2018,117358,5125 S KENWOOD AVE,Not Submitted,5125 S KENWOOD AVE,60615,0.0,false,HYDE PARK,,57439,,1,1199,,,,,,,,,,,,,41.80224043,-87.60332678,"(41.80224043, -87.60332678)"
2018,254074,2007 N Sedgwick Condominium,Submitted,2007 N Sedgwick,60614,3.5,false,Lincoln Park,Multifamily Housing,50000,1978,1,920,56,2171181.8,,,,,43.4,121.6,42,117.7,361.2,7.2,41.9217371,-87.65392,"(41.9217371, -87.65392)"
2018,140247,3371,Submitted,3443 W Addison,60618,4.0,false,AVONDALE,Retail Store,113573,1984,1,525,88,3325986.6,1382400.1,,,,41.5,94.8,41.5,94.8,626.8,5.5,41.94672055,-87.70319673,"(41.94672055, -87.70319673)"
2018,251525,Tilton-CPS,Exempt,223 N Keeler Ave,60624,,true,WEST GARFIELD PARK,,104888,,1,1550,,,,,,,,,,,,,41.88386042,-87.73025708,"(41.88386042, -87.73025708)"
2018,114543,(IL509) - Parkshore Cooperative,Submitted,1755-1765 E. 55th St.,60615,3.0,false,HYDE PARK,Multifamily Housing,186905,1926,1,4806,67,1916677.4,15953376.6,,,,95.6,118.3,97.2,120.1,1166.2,6.2,41.80224043,-87.60332678,"(41.80224043, -87.60332678)"
2018,251428,"Henson Elementary, Matthew A -CPS",Exempt,1326 S Avers Ave,60623,,true,NORTH LAWNDALE,,64300,,1,40,,,,,,,,,,,,,41.86377597,-87.72184326,"(41.86377597, -87.72184326)"
2018,255938,LDS Church Clark Street Meetinghouse,Not Submitted,822 N Clark St,60610,0.0,false,NEAR NORTH SIDE,,116057,,1,204,,,,,,,,,,,,,41.9056301,-87.6322449,"(41.9056301, -87.6322449)"
2018,244182,Park Place Tower I CA,Submitted,655 W. Irving Park Road,60613,1.0,false,LAKE VIEW,Multifamily Housing,989315,1970,1,41188,27,25901536.1,78493618.9,,,,105.5,156.6,103.2,154.2,8478.3,8.6,41.95381635,-87.64691335,"(41.95381635, -87.64691335)"
2018,175817,BENCHMARK ID #175817,Submitted,1450 N Cicero Ave,60651,4.0,false,AUSTIN,Other - Mall,87000,1980,1,241,,2315229.7,2867054.6,,,,59.6,109.1,,,537.5,6.2,41.90734776,-87.74608809,"(41.90734776, -87.74608809)"
2018,250165,River East Center Campus,Submitted,302 322 E Illinois St,60611,1.0,false,NEAR NORTH SIDE,Mixed Use Property,1511361,2001,1,36867,20,69228047,96941972.9,,,,109.9,195.6,110.6,195.5,16666.1,11,41.8914469,-87.61889748,"(41.8914469, -87.61889748)"
2018,251712,Penn Elementary -CPS,Exempt,1616 S Avers Ave,60623,,true,NORTH LAWNDALE,,158325,,1,7825,,,,,,,,,,,,,41.85814717,-87.7220919,"(41.85814717, -87.7220919)"
2018,251907,Burnham Mathematics And Science Academy -CPS,Exempt,1903 E 96th St,60617,,true,SOUTH DEERING,,76600,,1,,,,,,,,,,,,,,41.7202868,-87.57768116,"(41.7202868, -87.57768116)"
2018,231520,Lowell House Condominium Association,Submitted,88 West Schiller,60610,1.0,false,NEAR NORTH SIDE,Multifamily Housing,279351,1969,1,8878,30,4684744.2,26894843.7,,,,113,148,114.1,148.1,2207.9,7.9,41.90808621,-87.63117012,"(41.90808621, -87.63117012)"
2018,100770,7419 7425 S COLFAX AVE,Exempt,7419 7425 S COLFAX AVE,60649,,true,SOUTH SHORE,,78240,,1,,,,,,,,,,,,,,41.76259226,-87.57231648,"(41.76259226, -87.57231648)"
2018,253958,Peterson Lofts Condominium Association,Submitted,523 S. Plymouth Ct.,60605,4.0,false,Loop,Multifamily Housing,82500,1915,1,1676,91,1372712.4,3331524.7,,,,57,89,55.1,86,405.3,4.9,41.8684207,-87.62414082,"(41.8684207, -87.62414082)"
2018,175535,3100 S King Condominium Association,Submitted,3100 S King Dr,60616,2.0,false,DOUGLAS,Multifamily Housing,64800,1978,1,2183,43,3151104.5,778015.8,,,,60.6,148.8,58.7,143.1,565.6,8.7,41.84550365,-87.63055693,"(41.84550365, -87.63055693)"
2018,175292,Tree Studios,Submitted,601-623 N. State St.,60654,2.0,false,NEAR NORTH SIDE,Retail Store,55500,1912,1,,,1697217.5,2188900.2,,,,70,127,69.6,125.8,398.6,7.2,41.89256323,-87.62806371,"(41.89256323, -87.62806371)"
2018,161204,Illinois College of Optometry,Submitted,3241 South Michigan Ave,60616-0000,3.0,false,DOUGLAS,College/University,333084,1968,2,4695,,13229432.9,14171999.6,,,,82.3,155.9,82.2,155.8,2953.6,8.9,41.83550388,-87.62254535,"(41.83550388, -87.62254535)"
2018,113752,1540 North State Parkway Condominium Association,Submitted,1540 N. State Pkwy.,60610,3.5,false,NEAR NORTH SIDE,Multifamily Housing,99000,2006,1,1611,80,1516896.7,6234386.3,,,,78.3,109,78.6,107.9,583.5,5.9,41.9037528,-87.63558845,"(41.9037528, -87.63558845)"
2018,124056,,Exempt,211 223 S STATE ST,60604,,true,LOOP,,152025,,1,859,,,,,,,,,,,,,41.8789412,-87.62766418,"(41.8789412, -87.62766418)"
2018,254162,Mertz Hall - CFSU-ID# 254162,Submitted,1125 W Loyola Ave,60626,4.0,false,Rogers Park,Residence Hall/Dormitory,255286,1962,2,8759,,6815029.9,2079548.6,,,,34.8,83.3,34.6,82.5,1244.2,4.9,42.0015174,-87.65906,"(42.0015174, -87.65906)"
2018,119504,The Promenade Condominium Association,Submitted,1201 W Adams,60607,1.0,false,NEAR WEST SIDE,Multifamily Housing,84000,2001,1,3427,6,4348839.7,7461482.1,,,,140.6,238.2,136.3,230.3,1119.8,13.3,41.87879651,-87.6574532,"(41.87879651, -87.6574532)"
2018,224416,400 East Ohio Condominium Association,Submitted,400 E Ohio Street,60611,1.5,false,NEAR NORTH SIDE,Multifamily Housing,285156,1981,1,9954,34,14333651.6,6035650.2,,,,71.4,163,71.2,161.8,2705.2,9.5,41.89285273,-87.61741095,"(41.89285273, -87.61741095)"
2018,252246,Pritzker College Prep,Submitted,4131 W Cortland St,60639,2.0,false,HERMOSA,K-12 School,65655,1901,1,648,50,1979607.6,4507449.5,,,,98.8,156.5,99.2,156.7,568.7,8.7,41.91527261,-87.73026634,"(41.91527261, -87.73026634)"
2018,136487,Friend Center,Submitted,800 E. 55th St.,60637,1.0,false,HYDE PARK,Medical Office,73327,1963,1,1900,19,3730813.9,9657763.1,,,,182.6,280.8,179.1,276.8,1133.6,15.5,41.79554344,-87.60569126,"(41.79554344, -87.60569126)"
2018,254365,Wolf Point West,Submitted,343 W. Wolf Point Plaza,60654,4.0,false,Near North Side,Multifamily Housing,430000,2015,1,13290,94,8347461.4,14165386.1,,,,52.4,88.9,51.7,88.5,2141.1,5,41.8921691,-87.63413579,"(41.8921691, -87.63413579)"
2018,244073,900/910 Lake Shore Drive,Submitted,900 North Lake Shore Dr.,60611,2.5,false,NEAR NORTH SIDE,Multifamily Housing,622596,1955,2,15918,54,13799827.2,41413270.4,,,,88.7,131.9,87.7,129.1,4495.5,7.2,41.89949788,-87.61957344,"(41.89949788, -87.61957344)"
2018,136695,,Exempt,3636 3646 S IRON ST,60609,,true,MCKINLEY PARK,,186000,,1,210,,,,,,,,,,,,,41.82776094,-87.65952686,"(41.82776094, -87.65952686)"
2018,103315,230 East Ontario Condominium Association,Submitted,230 E. Ontario St.,60611,2.0,false,NEAR NORTH SIDE,Multifamily Housing,163000,1969,1,5877,48,4040367.6,8904402.8,,,,79.4,126.8,79.6,125.5,1145.1,7,41.89579275,-87.62247957,"(41.89579275, -87.62247957)"
2018,175975,626 West Jackson,Submitted,626 West Jackson Boulevard,60661,4.0,false,NEAR WEST SIDE,Office,119741,1920,1,1562,63,7240335.7,,,,,60.5,169.3,60.2,168.5,1204.5,10.1,41.87822966,-87.64359272,"(41.87822966, -87.64359272)"
2018,159005,Corliss HS -CPS,Exempt,821 E 103rd St,60628,,true,PULLMAN,,272651,,1,,,,,,,,,,,,,,41.70649646,-87.60268998,"(41.70649646, -87.60268998)"
2018,133957,Capitol Hill Lofts,Submitted,625 W Jackson,60661,4.0,false,NEAR WEST SIDE,Multifamily Housing,120000,1918,1,3608,88,2552466,4518914.1,,,,58.9,99.1,57.5,96.7,664.7,5.5,41.88321395,-87.64336601,"(41.88321395, -87.64336601)"
2018,251534,Smith-CPS,Submitted,730 E 103RD ST,60628,1.0,false,PULLMAN,K-12 School,76920,1974,1,920,9,3974236.2,4033625.7,,,,104.1,199.7,102.8,198.4,875.4,11.4,41.70781895,-87.60526513,"(41.70781895, -87.60526513)"
2018,250143,325 North Wells,Submitted,325 North Wells,60654,3.0,false,NEAR NORTH SIDE,College/University,154112,1914,1,544,,4502311.4,5577817.1,,4042788.1,,91.6,143.7,91.4,143.5,1258.3,8.2,41.88833144,-87.63394425,"(41.88833144, -87.63394425)"
2018,138379,6200 N Hiawatha Ave,Submitted,6200 N Hiawatha Ave,60646,4.0,false,FOREST GLEN,Office,117780,1968,1,260,81,4626515,,,,,39.3,110,38.5,107.9,769.7,6.5,41.99367467,-87.74969325,"(41.99367467, -87.74969325)"
2018,102854,Hyde Park West Apartments,Submitted,5325 S. Cottage Grove Ave,60615,1.0,false,HYDE PARK,Multifamily Housing,146499,1968,5,8191,1,3296568.6,337102993.2,,,,2323.6,2479.1,2323,2477.4,18453.6,126,41.80224043,-87.60332678,"(41.80224043, -87.60332678)"
2018,119987,70800552 -- Chicago,Submitted,7030 S Ashland Avenue,60601,2.0,false,WEST ENGLEWOOD,Supermarket/Grocery Store,63284,2006,1,1369,48,8308465.7,6164789,,,,228.7,469.9,229.2,470.2,1709.7,27,41.76547365,-87.66448496,"(41.76547365, -87.66448496)"
2018,252112,Pete's Cermak,Submitted,2526 W. Cermak,60608,1.0,false,SOUTH LAWNDALE,Supermarket/Grocery Store,74000,2006,1,4386,28,12183317.1,9809300.1,,,,297.2,600.2,297.6,599.1,2547.9,34.4,41.8532888,-87.68928885,"(41.8532888, -87.68928885)"
2018,158526,Copy of 33738-Chicago Marriott Dwntwn,Submitted,540 North Michigan Avenue,60611,3.5,false,NEAR NORTH SIDE,Hotel,949542,1990,1,40148,51,44596341.3,63255988.9,,,,113.6,201.5,111.7,199.2,10779.1,11.4,41.89213144,-87.62485893,"(41.89213144, -87.62485893)"
2018,222552,Venetian Condominium Association,Submitted,222-232 W. Division St.,60610,3.0,false,NEAR NORTH SIDE,Multifamily Housing,222808,2002,1,3560,68,4564222.2,10706823.1,,,,68.5,107.8,66.2,103.4,1328,6,41.90384465,-87.63521255,"(41.90384465, -87.63521255)"
2018,252080,400 West Ontario Condominium Association,Submitted,400 W Ontario St.,60654,4.0,false,NEAR NORTH SIDE,Multifamily Housing,227267,1999,1,4900,72,4268224.3,11390549.4,,,,68.9,105.2,66.4,101.5,1315.1,5.8,41.89336089,-87.63899223,"(41.89336089, -87.63899223)"
2018,101954,Garland Building,Submitted,111 N. Wabash Avenue,60602,1.0,false,LOOP,Office,259000,1914,1,615,19,16933609.3,17834665.7,,,,134.2,255.4,134.7,255.7,3764.4,14.5,41.88357029,-87.62621336,"(41.88357029, -87.62621336)"
2018,254059,Safer Foundation Crossroad Correctional Center,Submitted,3210 West Arthington,60624,2.0,false,East Garfield Park,Prison/Incarceration,127263,1899,1,8311,,3973338.8,9138907.5,,,,103,162.8,100.6,159.8,1146.4,9,41.88081605,-87.72347483,"(41.88081605, -87.72347483)"
2018,104226,606 West Cornelia LLC,Submitted,606-620 W. Cornelia Ave.,60657,4.0,false,LAKE VIEW,Multifamily Housing,72700,1969,1,1217,95,968530.3,4526301.8,,,,75.6,102.7,76.6,103.7,401.5,5.5,41.9398511,-87.65844752,"(41.9398511, -87.65844752)"
2018,251664,"Trumbull Elementary, Lyman -CPS",Exempt,5200 N Ashland Ave,60640,,true,EDGEWATER,,91527,,1,504,,,,,,,,,,,,,41.97657719,-87.67009443,"(41.97657719, -87.67009443)"
2018,105991,Red Roof Inn,Exempt,162 164 E ONTARIO ST,60611,,true,NEAR NORTH SIDE,,101800,,1,1117,,,,,,,,,,,,,41.89579275,-87.62247957,"(41.89579275, -87.62247957)"
2018,175539,6244-46 S King Drive,Submitted,6244-56 S. King Drive,60637,2.5,false,WASHINGTON PARK,Multifamily Housing,55000,1923,1,6811,56,1085766.6,6072508.7,,,,130.2,171.2,127.5,168.4,503.2,9.1,41.78046327,-87.6053081,"(41.78046327, -87.6053081)"
2018,101999,1415 W LUNT AVE,Not Submitted,1415 W LUNT AVE,60626,0.0,false,ROGERS PARK,,69964,,1,1451,,,,,,,,,,,,,42.01036185,-87.66829765,"(42.01036185, -87.66829765)"
2018,106158,1100 N Lasalle,Submitted,1100 N. Lasalle St.,60610,4.0,false,NEAR NORTH SIDE,Multifamily Housing,128658,1921,1,6123,84,2468950.8,11494027.8,,,,108.5,147.5,106.6,145.1,1021.2,7.9,41.9037528,-87.63558845,"(41.9037528, -87.63558845)"
2018,102283,Amita Saint Joseph Hospital - Chicago,Submitted,2900 N Lake Shore Drive,60657,3.5,false,LAKE VIEW,Hospital (General Medical & Surgical),681807,1960,2,27391,58,58160372,93750098.4,,,,222.8,383.2,223.7,383.8,14655.3,21.5,41.93498449,-87.63728308,"(41.93498449, -87.63728308)"
2018,175595,"714 -726 W. Waveland, LLC",Submitted,714 N. Waveland Ave.,60613,3.0,false,LAKE VIEW,Multifamily Housing,52000,1915,1,1233,62,452291.3,3405704.3,,,,74.2,93.1,75.3,94.3,256.1,4.9,41.95402016,-87.6620278,"(41.95402016, -87.6620278)"
2018,172613,2720 2730 N Greenview Ave,Not Submitted,2720 2730 N Greenview Ave,60614,0.0,false,LINCOLN PARK,,64000,,1,494,,,,,,,,,,,,,41.92201051,-87.65461957,"(41.92201051, -87.65461957)"
2018,175579,7645 N SHERIDAN RD,Not Submitted,7645 N SHERIDAN RD,60626,0.0,false,ROGERS PARK,,67662,,1,554,,,,,,,,,,,,,42.01036185,-87.66829765,"(42.01036185, -87.66829765)"
2018,236480,Thorndale Beach South Condominium Association,Submitted,5855 N. Sheridan,60660,1.0,false,EDGEWATER,Multifamily Housing,287849,1967,1,10453,13,19309705.6,,,,,67.1,187.8,65.6,183.7,3212.4,11.2,41.988847,-87.65469653,"(41.988847, -87.65469653)"
2018,234748,800 N. Michigan Condominium Association,Submitted,800 N. Michigan Ave,60611,1.0,false,NEAR NORTH SIDE,Multifamily Housing,677123,1999,1,21631,8,52309542.6,9809996.7,,,,91.7,231.5,90.5,228.1,9223.5,13.6,41.89701919,-87.62529836,"(41.89701919, -87.62529836)"
2018,251860,Ogden Intl H-CPS,Submitted,1250 W Erie St,60622,3.5,false,WEST TOWN,K-12 School,93355,1957,1,947,74,1777258.9,4203420.1,,,,64.1,100.6,62,98.4,518.9,5.6,41.89351801,-87.65846098,"(41.89351801, -87.65846098)"
2018,252309,Nathalie Salmon House,Submitted,7320 N Sheridan Rd,60626,4.0,false,ROGERS PARK,Multifamily Housing,51000,1994,1,1173,83,1065257.1,2299949.8,,,,66,105.8,65.5,103.9,299.4,5.9,42.01453833,-87.66446285,"(42.01453833, -87.66446285)"
2018,132017,1300 Dearborn Property LLC,Submitted,1300 N Dearborn St,60610,4.0,false,NEAR NORTH SIDE,Retail Store,60000,1915,1,3493,96,932064.9,1520253,,,,40.9,70.1,40.9,70.1,235.8,3.9,41.90614898,-87.63008406,"(41.90614898, -87.63008406)"
